~Version
 VERS.                                 2.0: CWLS LOG ASCII STANDARD - VERSION 2.0
 WRAP.                                  NO: ONE LINE PER DEPTH STEP
 DLM.                                SPACE: DELIMITING CHARACTER(SPACE TAB OR COMMA)
~Well Information
 STRT.ft                               2.0: First reference value
 STOP.ft                           10791.0: Last reference value
 STEP.ft                               0.5: Step increment
 NULL.                             -999.25: Missing value
 WELL.                              PETRO1: Well name
 UWI.                           4200000000: Unique Well ID
 API.                           4200000000: API Number
 LONG.                   -103.663049999873: Longitude
 LATI.                    31.5180500000053: Latitude
~Curve Information
 MD.ft                                    : Measured Depth
 BH_CALI.unitless                     : Bad Hole Caliper = 3in Delta 3ft Window
 BH_DRHO.unitless                     : Bad Hole Density Correction = -0.1>DRHO or DRHO>0.10
 CALI.in                              : Caliper
 DPHI_UNK.v/v                         : Density Porosity Unknown
 DRHO.g/cm3                           : Bulk Density Correction
 GR.gAPI                              : Gamma Ray
 NPHI.v/v                             : Neutron Porosity
 NPHI_UNK.v/v                         : Neutron Porosity Unknown
 RDEEP.ohm.m                          : Deep Resistivity
 RDEEP_LAT.ohm.m                      : Deep Laterolog Resistivity
 RDEEP_LOG_10.unitless                : Deep Resistivity = Log10(RDEEP)
 RSHAL.ohm.m                          : Shallow Resistivity
 RSHAL_LAT.ohm.m                      : Shallow Laterolog Resistivity
 RXO.ohm.m                            : Micro Resistivity
~Ascii Data Section
# ...
1065.50 0 0 13.0020 -0.1550 0.0300 7.9660 -0.0120 -0.0120 12410.4219 12410.4219 4.09378654586032 1021.5510 1021.5510 1726.1010
1066.00 0 0 13.0030 -0.1430 0.0240 8.0620 -0.0120 -0.0120 12410.4219 12410.4219 4.09378654586032 1022.1760 1022.1760 1708.5179
1066.50 0 0 13.0040 -0.1450 0.0170 8.2290 -0.0130 -0.0130 12410.4219 12410.4219 4.09378654586032 1022.8010 1022.8010 1678.3060
1067.00 0 0 13.0050 -0.1530 0.0100 8.0450 -0.0130 -0.0130 12375.7852 12375.7852 4.09257276293563 1023.4260 1023.4260 1586.4500
1067.50 0 0 13.0070 -0.1610 0.0120 7.5320 -0.0130 -0.0130 12318.1338 12318.1338 4.0905449171017 1024.0500 1024.0500 1677.1470
1068.00 0 0 13.0080 -0.1650 0.0150 7.1150 -0.0140 -0.0140 12259.8330 12259.8330 4.0884845543853 1024.6750 1024.6750 1674.1710
1068.50 0 0 13.0090 -0.1590 0.0150 7.5890 -0.0140 -0.0140 12185.8672 12185.8672 4.08585644092931 1025.3000 1025.3000 1661.1860
1069.00 0 0 13.0100 -0.1540 0.0040 8.1080 -0.0140 -0.0140 12227.2686 12227.2686 4.08732945258561 1025.9250 1025.9250 1646.3530
1069.50 0 0 13.0110 -0.1480 -0.0030 7.9950 -0.0140 -0.0140 12300.6465 12300.6465 4.08992793778119 1026.5500 1026.5500 1646.3530
1070.00 0 0 13.0120 -0.1430 0.0010 7.4370 -0.0140 -0.0140 12374.6201 12374.6201 4.09253187499904 1027.1750 1027.1750 1732.6670
1070.50 0 0 13.0130 -0.1540 0.0110 6.9100 -0.0140 -0.0140 12448.6924 12448.6924 4.09512373590658 1027.8000 1027.8000 1806.1940
1071.00 0 0 13.0150 -0.1720 0.0200 6.4510 -0.0140 -0.0140 12522.4424 12522.4424 4.09768904272372 1028.4250 1028.4250 1806.1940
1071.50 0 0 13.0160 -0.1790 0.0290 5.9010 -0.0140 -0.0140 12595.6191 12595.6191 4.10021951880562 1029.0500 1029.0500 1828.1890
1072.00 0 0 13.0170 -0.1790 0.0350 6.2600 -0.0140 -0.0140 12644.3867 12644.3867 4.10189776928618 1029.6750 1029.6750 1874.3940
1072.50 0 0 13.0180 -0.1750 0.0270 6.7650 -0.0140 -0.0140 12643.3711 12643.3711 4.10186288525419 1030.3000 1030.3000 1851.5870
1073.00 0 0 13.0190 -0.1620 0.0150 7.2550 -0.0140 -0.0140 12642.3926 12642.3926 4.10182927288987 1030.9250 1030.9250 1808.8459
1073.50 0 0 13.0200 -0.1530 0.0030 7.8110 -0.0140 -0.0140 12641.6855 12641.6855 4.10180498174293 1031.5500 1031.5500 1773.0300
1074.00 0 0 13.0220 -0.1470 -0.0020 7.7260 -0.0140 -0.0140 12641.1484 12641.1484 4.1017865297318 1032.1750 1032.1750 1839.1960
1074.50 0 0 13.0230 -0.1410 -0.0050 7.5560 -0.0140 -0.0140 12640.7236 12640.7236 4.1017719352195 1032.8010 1032.8010 1909.4540
1075.00 0 0 13.0240 -0.1370 -0.0020 7.4740 -0.0140 -0.0140 12640.8135 12640.8135 4.10177502388248 1033.4270 1033.4270 1909.4540
1075.50 0 0 13.0250 -0.1360 0.0000 7.5720 -0.0140 -0.0140 12642.5537 12642.5537 4.10183480700018 1034.0480 1034.0480 1909.4540
1076.00 0 0 13.0260 -0.1380 0.0020 7.6490 -0.0140 -0.0140 12450.4912 12450.4912 4.09518648566801 1034.6830 1034.6830 1909.4540
1076.50 0 0 13.0270 -0.1500 0.0110 7.7130 -0.0140 -0.0140 12214.6074 12214.6074 4.0868795125085 1035.2980 1035.2980 1909.4540
1077.00 0 0 13.0290 -0.1630 0.0190 7.8100 -0.0140 -0.0140 11978.7227 11978.7227 4.07841051138251 1035.8700 1035.8700 1909.4540
1077.50 0 0 13.0300 -0.1740 0.0290 7.8980 -0.0140 -0.0140 11742.8398 11742.8398 4.06977313612203 1035.8900 1035.8900 1981.5540
1078.00 0 0 13.0310 -0.1750 0.0360 8.3750 -0.0140 -0.0140 11523.7383 11523.7383 4.06159338704707 1035.9030 1035.9030 1967.3740
1078.50 0 0 13.0320 -0.1620 0.0280 8.8350 -0.0140 -0.0140 11826.9844 11826.9844 4.07287402396932 1035.8940 1035.8940 1936.9720
1079.00 0 0 13.0330 -0.1500 0.0100 9.0770 -0.0140 -0.0140 12275.6465 12275.6465 4.08904437362507 1035.8970 1035.8970 1909.4540
1079.50 0 0 13.0340 -0.1430 0.0020 9.0590 -0.0150 -0.0150 12410.4219 12410.4219 4.09378654586032 1035.8960 1035.8960 1951.9930
1080.00 0 0 13.0360 -0.1460 0.0020 8.0810 -0.0150 -0.0150 12351.7188 12351.7188 4.09172739592896 1035.8950 1035.8950 1981.5540
1080.50 0 0 13.0370 -0.1550 0.0060 6.6270 -0.0150 -0.0150 12237.4746 12237.4746 4.08769180339413 1035.8950 1035.8950 1931.0100
1081.00 0 0 13.0380 -0.1660 0.0120 5.7080 -0.0150 -0.0150 12123.2314 12123.2314 4.08361839475928 1035.8950 1035.8950 1885.8250
1081.50 0 0 13.0390 -0.1720 0.0220 5.5620 -0.0150 -0.0150 12008.9883 12008.9883 4.07950642170478 1035.8950 1035.8950 1874.3940
1082.00 0 0 13.0400 -0.1840 0.0310 5.6890 -0.0150 -0.0150 11739.2861 11739.2861 4.06964168700889 1035.8950 1035.8950 1909.4540
1082.50 0 0 13.0410 -0.1950 0.0400 6.5880 -0.0140 -0.0140 11846.5488 11846.5488 4.07359184777909 1035.8950 1035.8950 1907.0750
1083.00 0 0 13.0430 -0.2020 0.0410 7.1050 -0.0140 -0.0140 12132.2070 12132.2070 4.08393981164446 1035.8950 1035.8950 1900.7390
1083.50 0 0 13.0440 -0.1920 0.0300 7.0360 -0.0140 -0.0140 12417.8662 12417.8662 4.09404697609986 1035.8950 1035.8950 1894.4041
1084.00 0 0 13.0450 -0.1800 0.0170 7.0610 -0.0140 -0.0140 12673.4541 12673.4541 4.10289499626692 1035.8950 1035.8950 1888.0680
1084.50 0 0 13.0460 -0.1700 0.0210 7.0630 -0.0130 -0.0130 12818.2246 12818.2246 4.10782787699107 1035.8950 1035.8950 1881.7321
1085.00 0 0 13.0470 -0.1700 0.0280 7.0290 -0.0130 -0.0130 12962.9961 12962.9961 4.11270539037065 1035.9120 1035.9120 1874.3940
1085.50 0 0 13.0480 -0.1700 0.0330 7.4070 -0.0130 -0.0130 13107.7666 13107.7666 4.11752869962867 1035.8990 1035.8990 1931.4570
1086.00 0 0 13.0490 -0.1680 0.0310 8.2010 -0.0130 -0.0130 13252.5381 13252.5381 4.12229906146258 1035.9420 1035.9420 1981.5540
1086.50 0 0 13.0510 -0.1640 0.0230 9.0260 -0.0130 -0.0130 13397.3086 13397.3086 4.1270175612329 1035.9480 1035.9480 1942.0790
1087.00 0 0 13.0520 -0.1570 0.0130 9.2610 -0.0140 -0.0140 13542.0801 13542.0801 4.13168537827584 1035.8950 1035.8950 1909.4540
1087.50 0 0 13.0530 -0.1500 0.0040 8.3450 -0.0140 -0.0140 13615.3242 13615.3242 4.13402798696094 1035.8950 1035.8950 1909.4540
1088.00 0 0 13.0540 -0.1430 -0.0060 7.4410 -0.0140 -0.0140 12772.9336 12772.9336 4.1062906545049 1035.8950 1035.8950 1848.6190
1088.50 0 0 13.0550 -0.1350 -0.0070 7.3040 -0.0140 -0.0140 11575.6055 11575.6055 4.06354371748101 1035.8950 1035.8950 1811.9830
1089.00 0 0 13.0560 -0.1280 -0.0090 8.0030 -0.0140 -0.0140 10378.2754 10378.2754 4.0161251910374 1016.0080 1016.0080 1773.0300
1089.50 0 0 13.0580 -0.1240 -0.0060 8.6670 -0.0140 -0.0140 9180.9463 9180.9463 3.96288744718028 998.2920 998.2920 1726.0150
1090.00 0 0 13.0590 -0.1210 0.0000 8.6240 -0.0140 -0.0140 8103.5601 8103.5601 3.90867585741047 979.8750 979.8750 1699.3120
1090.50 0 0 13.0600 -0.1230 0.0060 7.0460 -0.0140 -0.0140 8975.7002 8975.7002 3.95306833815673 998.2040 998.2040 1677.1470
1091.00 0 0 13.0610 -0.1390 0.0120 5.5400 -0.0140 -0.0140 9883.7305 9883.7305 3.99492089496977 1015.0960 1015.0960 1735.5330
1091.50 0 0 13.0620 -0.1660 0.0170 3.9160 -0.0140 -0.0140 10791.7598 10791.7598 4.03309227036516 1029.5341 1029.5341 1785.4360
1092.00 0 0 13.0630 -0.1930 0.0250 3.5570 -0.0150 -0.0150 11699.7891 11699.7891 4.06817803323917 1043.9720 1043.9720 1835.3400
1092.50 0 0 13.0650 -0.2090 0.0360 3.9160 -0.0150 -0.0150 12642.5537 12642.5537 4.10183480700018 1055.2710 1055.2710 1874.3940
1093.00 0 0 13.0660 -0.2060 0.0440 4.2350 -0.0150 -0.0150 12879.0293 12879.0293 4.1098831312272 1055.2710 1055.2710 1874.3940
1093.50 0 0 13.0670 -0.1920 0.0360 4.8900 -0.0150 -0.0150 12975.9902 12975.9902 4.1131405088702 1055.2710 1055.2710 1874.3940
1094.00 0 0 13.0680 -0.1760 0.0280 5.6830 -0.0150 -0.0150 13119.9268 13119.9268 4.11793141198745 1055.2710 1055.2710 1874.3940
1094.50 0 0 13.0690 -0.1600 0.0180 6.4710 -0.0150 -0.0150 13119.9268 13119.9268 4.11793141198745 1055.2710 1055.2710 1955.0300
1095.00 0 0 13.0700 -0.1490 0.0140 7.1900 -0.0150 -0.0150 13097.5479 13097.5479 4.11718999541299 1055.2810 1055.2810 2018.6180
1095.50 0 0 13.0720 -0.1560 0.0230 7.7560 -0.0150 -0.0150 13050.3672 13050.3672 4.11562273165056 1055.2791 1055.2791 2000.7960
1096.00 0 0 13.0730 -0.1760 0.0350 8.3970 -0.0150 -0.0150 13003.1846 13003.1846 4.11404972806313 1055.2740 1055.2740 1974.7330
1096.50 0 0 13.0740 -0.1770 0.0360 8.4290 -0.0150 -0.0150 12956.0039 12956.0039 4.11247107006894 1055.2710 1055.2710 1948.6700
1097.00 0 0 13.0750 -0.1750 0.0250 7.6300 -0.0150 -0.0150 12908.8223 12908.8223 4.11088662244134 1055.2710 1055.2710 1922.6060
