~Version
 VERS.                                 2.0: CWLS LOG ASCII STANDARD - VERSION 2.0
 WRAP.                                  NO: ONE LINE PER DEPTH STEP
 DLM.                                SPACE: DELIMITING CHARACTER(SPACE TAB OR COMMA)
~Well Information
 STRT.ft                               2.0: First reference value
 STOP.ft                           10791.0: Last reference value
 STEP.ft                               0.5: Step increment
 NULL.                             -999.25: Missing value
 WELL.                              PETRO1: Well name
 UWI.                           4200000000: Unique Well ID
 API.                           4200000000: API Number
 LONG.                   -103.663049999873: Longitude
 LATI.                    31.5180500000053: Latitude
~Curve Information
 MD.ft                                    : Measured Depth
 BH_CALI.unitless                     : Bad Hole Caliper = 3in Delta 3ft Window
 BH_DRHO.unitless                     : Bad Hole Density Correction = -0.1>DRHO or DRHO>0.10
 CALI.in                              : Caliper
 DPHI_UNK.v/v                         : Density Porosity Unknown
 DRHO.g/cm3                           : Bulk Density Correction
 GR.gAPI                              : Gamma Ray
 NPHI.v/v                             : Neutron Porosity
 NPHI_UNK.v/v                         : Neutron Porosity Unknown
 RDEEP.ohm.m                          : Deep Resistivity
 RDEEP_LAT.ohm.m                      : Deep Laterolog Resistivity
 RDEEP_LOG_10.unitless                : Deep Resistivity = Log10(RDEEP)
 RSHAL.ohm.m                          : Shallow Resistivity
 RSHAL_LAT.ohm.m                      : Shallow Laterolog Resistivity
 RXO.ohm.m                            : Micro Resistivity
~Ascii Data Section
# ...
1713.50 0 0 13.3560 0.1150 0.0310 69.9750 0.1890 0.1890 43.9520 43.9520 1.64297864207649 8.2480 8.2480 6.9410
1714.00 0 0 13.3650 0.1100 0.0420 70.9540 0.1730 0.1730 37.1890 37.1890 1.57041450047995 6.7020 6.7020 4.7880
1714.50 0 0 13.3740 0.1150 0.0470 68.5330 0.1620 0.1620 30.4270 30.4270 1.4832591344918 5.0750 5.0750 3.2530
1715.00 0 0 13.3830 0.1230 0.0500 66.4620 0.1640 0.1640 26.7210 26.7210 1.42685270703537 4.9820 4.9820 3.1480
1715.50 0 0 13.3920 0.1320 0.0480 64.3100 0.1690 0.1690 25.4480 25.4480 1.40565365609931 4.8910 4.8910 2.9580
1716.00 0 0 13.4000 0.1400 0.0410 62.1240 0.1750 0.1750 24.5220 24.5220 1.38955588809524 4.8910 4.8910 2.7690
1716.50 0 0 13.4090 0.1470 0.0330 60.2680 0.1800 0.1800 24.5220 24.5220 1.38955588809524 4.9360 4.9360 2.6530
1717.00 0 0 13.4180 0.1460 0.0290 59.8760 0.1820 0.1820 24.3510 24.3510 1.38651680068677 4.9820 4.9820 2.8970
1717.50 0 0 13.4270 0.1440 0.0340 59.8630 0.1840 0.1840 24.0720 24.0720 1.38151217473202 4.9820 4.9820 3.3140
1718.00 0 0 13.4360 0.1480 0.0380 59.8080 0.1850 0.1850 22.7240 22.7240 1.35648478060522 4.6700 4.6700 2.8720
1718.50 0 0 13.4450 0.1540 0.0420 58.0330 0.1870 0.1870 20.5640 20.5640 1.313107595195 4.3160 4.3160 2.2620
1719.00 0 0 13.4540 0.1580 0.0420 56.1280 0.1910 0.1910 18.4050 18.4050 1.26493582178269 3.9630 3.9630 2.0090
1719.50 0 0 13.4630 0.1580 0.0420 53.3550 0.1950 0.1950 17.2440 17.2440 1.23663801418185 3.7730 3.7730 2.0090
1720.00 0 0 13.4720 0.1600 0.0460 49.6760 0.2010 0.2010 16.9280 16.9280 1.22860565035509 3.8440 3.8440 2.1940
1720.50 0 0 13.4790 0.1630 0.0500 46.2520 0.2120 0.2120 17.4300 17.4300 1.24129738710999 4.0160 4.0160 2.5890
1721.00 0 0 13.4740 0.1700 0.0460 42.3670 0.2230 0.2230 18.0010 18.0010 1.25529663190434 4.2130 4.2130 3.0210
1721.50 0 0 13.4680 0.1760 0.0380 41.4520 0.2280 0.2280 18.5710 18.5710 1.26883528999659 4.4090 4.4090 3.2530
1722.00 0 0 13.4620 0.1830 0.0310 40.9610 0.2310 0.2310 19.1410 19.1410 1.2819646232599 4.6260 4.6260 3.1610
1722.50 0 0 13.4570 0.1780 0.0360 41.3780 0.2320 0.2320 19.6330 19.6330 1.2929866665841 4.7960 4.7960 2.8780
1723.00 0 0 13.4510 0.1750 0.0400 42.0000 0.2300 0.2300 20.7500 20.7500 1.31701810104811 5.1150 5.1150 2.8050
1723.50 0 0 13.4450 0.1820 0.0330 43.1140 0.2230 0.2230 22.2530 22.2530 1.34738856792903 5.4340 5.4340 2.8050
1724.00 0 0 13.4390 0.1900 0.0230 45.6860 0.2190 0.2190 23.7570 23.7570 1.37579159768519 5.7530 5.7530 10.6510
1724.50 0 0 13.4340 0.1940 0.0110 51.5070 0.2140 0.2140 24.9810 24.9810 1.39760981937796 5.9560 5.9560 5.7000
1725.00 0 0 13.4280 0.1670 0.0190 59.0860 0.2080 0.2080 25.4480 25.4480 1.40565365609931 5.8860 5.8860 3.7040
1725.50 0 0 13.4220 0.1400 0.0380 57.9840 0.1940 0.1940 22.8810 22.8810 1.35947500110838 5.5730 5.5730 3.4390
1726.00 0 0 13.4170 0.1180 0.0480 56.8820 0.1770 0.1770 20.3740 20.3740 1.30907630182233 5.2670 5.2670 3.4450
1726.50 0 0 13.4110 0.1350 0.0430 55.5230 0.1600 0.1600 20.3740 20.3740 1.30907630182233 5.2670 5.2670 3.4600
1727.00 0 0 13.4050 0.1580 0.0360 56.4460 0.1540 0.1540 20.2480 20.2480 1.3063821321502 5.0750 5.0750 3.4750
1727.50 0 0 13.4000 0.1720 0.0280 57.3340 0.1660 0.1660 19.9640 19.9640 1.30024756119408 5.0780 5.0780 3.4900
1728.00 0 0 13.3990 0.1730 0.0290 56.4330 0.1760 0.1760 19.6800 19.6800 1.29402509409532 5.0820 5.0820 3.5030
1728.50 0 0 13.3990 0.1710 0.0290 55.7030 0.1810 0.1810 19.3960 19.3960 1.28771217544349 5.0870 5.0870 3.4320
1729.00 0 0 13.3990 0.1640 0.0260 55.3930 0.1770 0.1770 19.1120 19.1120 1.28130613674182 5.0910 5.0910 3.3650
1729.50 0 0 13.3990 0.1640 0.0230 55.0510 0.1730 0.1730 18.8280 18.8280 1.27480418963456 5.0960 5.0960 3.2990
1730.00 0 0 13.3990 0.1640 0.0200 54.4260 0.1690 0.1690 18.5440 18.5440 1.26820341861952 5.1000 5.1000 3.2320
1730.50 0 0 13.3990 0.1610 0.0250 54.7490 0.1680 0.1680 18.2600 18.2600 1.26150077319828 5.1040 5.1040 3.1660
1731.00 0 0 13.3990 0.1590 0.0330 55.5040 0.1710 0.1710 17.9760 17.9760 1.25469305941107 5.1090 5.1090 3.1350
1731.50 0 0 13.3990 0.1620 0.0360 56.3450 0.1730 0.1730 17.6910 17.6910 1.24775238249747 5.1130 5.1130 3.1240
1732.00 0 0 13.3990 0.1660 0.0280 56.2370 0.1750 0.1750 17.4710 17.4710 1.2423177637152 5.1170 5.1170 3.1110
1732.50 0 0 13.3990 0.1710 0.0180 55.1230 0.1840 0.1840 17.3010 17.3010 1.23807120613056 5.1220 5.1220 3.0970
1733.00 0 0 13.3990 0.1730 0.0130 54.2790 0.1920 0.1920 17.1310 17.1310 1.23378271508495 5.1260 5.1260 3.0830
1733.50 0 0 13.3990 0.1710 0.0140 54.0360 0.1940 0.1940 16.9610 16.9610 1.22945145415176 5.1300 5.1300 3.0700
1734.00 0 0 13.3990 0.1690 0.0190 54.7330 0.1920 0.1920 16.7910 16.7910 1.22507656162639 5.1350 5.1350 3.0560
1734.50 0 0 13.3990 0.1670 0.0280 55.4810 0.1980 0.1980 16.6210 16.6210 1.22065714949725 5.1390 5.1390 3.0420
1735.00 0 0 13.3990 0.1670 0.0320 56.0630 0.2090 0.2090 16.4510 16.4510 1.21619230236393 5.1440 5.1440 3.0280
1735.50 0 0 13.3990 0.1680 0.0380 56.5910 0.2200 0.2200 16.2810 16.2810 1.21168107629914 5.1480 5.1480 2.9750
1736.00 0 0 13.3990 0.1690 0.0340 56.4250 0.2270 0.2270 16.1100 16.1100 1.20709554041922 5.1520 5.1520 2.8570
1736.50 0 0 13.3990 0.1700 0.0310 55.9120 0.2120 0.2120 15.9400 15.9400 1.20248831706009 5.1560 5.1560 2.9230
1737.00 0 0 13.3990 0.1550 0.0350 56.3150 0.1880 0.1880 15.7700 15.7700 1.1978316933289 5.1610 5.1610 3.1350
1737.50 0 0 13.3990 0.1480 0.0360 57.3810 0.1690 0.1690 15.6000 15.6000 1.19312459835446 5.1660 5.1660 3.0920
1738.00 0 0 13.3990 0.1500 0.0330 61.7450 0.1700 0.1700 15.4300 15.4300 1.18836592606315 5.1700 5.1700 3.0070
1738.50 0 0 13.3990 0.1560 0.0280 61.1120 0.1750 0.1750 15.2600 15.2600 1.18355453361886 5.2030 5.2030 2.9650
1739.00 0 0 13.3990 0.1540 0.0350 60.6330 0.1810 0.1810 15.1460 15.1460 1.18029795248859 5.2680 5.2680 2.9810
1739.50 0 0 13.3990 0.1490 0.0440 60.4890 0.1880 0.1880 15.1460 15.1460 1.18029795248859 5.3320 5.3320 3.0030
1740.00 0 0 13.3990 0.1430 0.0540 61.9500 0.1950 0.1950 15.1980 15.1980 1.18178644017419 5.3960 5.3960 3.0250
1740.50 0 0 13.3990 0.1380 0.0520 63.7350 0.1970 0.1970 15.2420 15.2420 1.18304195729064 5.4600 5.4600 3.0460
1741.00 0 0 13.3990 0.1380 0.0420 64.9270 0.1940 0.1940 15.2870 15.2870 1.18432226557716 5.5240 5.5240 3.0680
1741.50 0 0 13.3990 0.1470 0.0310 65.1780 0.1900 0.1900 15.3320 15.3320 1.18559881058231 5.5880 5.5880 3.0770
1742.00 0 0 13.3990 0.1570 0.0200 66.2800 0.1870 0.1870 15.3770 15.3770 1.18687161436454 5.6530 5.6530 3.8440
1742.50 0 0 13.3990 0.1650 0.0110 67.0720 0.1830 0.1830 15.4300 15.4300 1.18836592606315 5.7170 5.7170 3.0770
1743.00 0 0 13.3990 0.1550 0.0190 66.0310 0.1790 0.1790 15.3770 15.3770 1.18687161436454 5.7810 5.7810 3.0770
1743.50 0 0 13.3960 0.1450 0.0250 64.5420 0.1790 0.1790 15.2530 15.2530 1.18335527026051 5.8450 5.8450 3.1510
1744.00 0 0 13.3890 0.1390 0.0340 63.4320 0.1820 0.1820 15.1310 15.1310 1.17986763127041 5.9090 5.9090 3.4390
1744.50 0 0 13.3830 0.1470 0.0320 62.3570 0.1840 0.1840 15.0080 15.0080 1.17632282103499 5.9730 5.9730 3.1930
1745.00 0 0 13.3770 0.1560 0.0290 61.1850 0.1900 0.1900 14.8870 14.8870 1.17280718836909 6.0380 6.0380 3.2430
1745.50 0 0 13.3700 0.1610 0.0250 61.0590 0.1960 0.1960 14.7640 14.7640 1.16920403652362 6.1090 6.1090 3.3460
1746.00 0 0 13.3640 0.1560 0.0260 61.5570 0.2070 0.2070 14.6310 14.6310 1.16527401031123 6.1090 6.1090 3.4390
1746.50 0 0 13.3570 0.1480 0.0340 62.5070 0.2200 0.2200 14.8680 14.8680 1.17225255242369 6.1090 6.1090 3.4110
1747.00 0 0 13.3510 0.1400 0.0420 63.1520 0.2210 0.2210 14.8680 14.8680 1.17225255242369 6.1090 6.1090 3.6670
1747.50 0 0 13.3440 0.1330 0.0480 62.9250 0.2130 0.2130 14.8680 14.8680 1.17225255242369 6.1090 6.1090 3.8380
1748.00 0 0 13.3380 0.1370 0.0570 64.6960 0.2030 0.2030 14.8680 14.8680 1.17225255242369 6.1090 6.1090 3.9150
1748.50 0 0 13.3310 0.1410 0.0370 67.5980 0.1920 0.1920 14.8680 14.8680 1.17225255242369 6.1090 6.1090 3.9150
1749.00 0 0 13.3250 0.1450 0.0340 69.5540 0.1810 0.1810 14.8680 14.8680 1.17225255242369 6.1090 6.1090 3.9150
1749.50 0 0 13.3190 0.1450 0.0310 68.9580 0.1720 0.1720 14.8680 14.8680 1.17225255242369 6.1090 6.1090 3.9150
