~Version
 VERS.                                 2.0: CWLS LOG ASCII STANDARD - VERSION 2.0
 WRAP.                                  NO: ONE LINE PER DEPTH STEP
 DLM.                                SPACE: DELIMITING CHARACTER(SPACE TAB OR COMMA)
~Well Information
 STRT.ft                               2.0: First reference value
 STOP.ft                           10791.0: Last reference value
 STEP.ft                               0.5: Step increment
 NULL.                             -999.25: Missing value
 WELL.                              PETRO1: Well name
 UWI.                           4200000000: Unique Well ID
 API.                           4200000000: API Number
 LONG.                   -103.663049999873: Longitude
 LATI.                    31.5180500000053: Latitude
~Curve Information
 MD.ft                                    : Measured Depth
 BH_CALI.unitless                     : Bad Hole Caliper = 3in Delta 3ft Window
 BH_DRHO.unitless                     : Bad Hole Density Correction = -0.1>DRHO or DRHO>0.10
 CALI.in                              : Caliper
 DPHI_UNK.v/v                         : Density Porosity Unknown
 DRHO.g/cm3                           : Bulk Density Correction
 GR.gAPI                              : Gamma Ray
 NPHI.v/v                             : Neutron Porosity
 NPHI_UNK.v/v                         : Neutron Porosity Unknown
 RDEEP.ohm.m                          : Deep Resistivity
 RDEEP_LAT.ohm.m                      : Deep Laterolog Resistivity
 RDEEP_LOG_10.unitless                : Deep Resistivity = Log10(RDEEP)
 RSHAL.ohm.m                          : Shallow Resistivity
 RSHAL_LAT.ohm.m                      : Shallow Laterolog Resistivity
 RXO.ohm.m                            : Micro Resistivity
~Ascii Data Section
# ...
4570.00 0 0 12.8140 0.1260 0.0690 36.7250 0.1100 0.1100 6.1090 6.1090 0.78597012513201 6.1090 6.1090 2.4300
4570.50 0 0 12.8230 0.1540 0.0490 30.1730 0.1110 0.1110 5.8860 5.8860 0.769820257763592 5.8860 5.8860 3.3910
4571.00 0 0 12.8320 0.1440 0.0300 32.1680 0.1130 0.1130 6.0240 6.0240 0.779884963192644 6.1630 6.1630 13.0590
4571.50 0 0 12.8400 0.1200 0.0370 35.3450 0.1120 0.1120 6.4840 6.4840 0.811843006176477 6.5610 6.5610 8.9980
4572.00 0 0 12.8490 0.0960 0.0510 48.5490 0.1000 0.1000 6.9440 6.9440 0.841609712168436 6.9580 6.9580 4.5110
4572.50 0 0 12.8580 0.0770 0.0600 66.5380 0.0950 0.0950 7.4030 7.4030 0.869407749382202 7.3560 7.3560 2.4180
4573.00 0 0 12.8670 0.0760 0.0600 66.7320 0.1100 0.1100 7.8630 7.8630 0.895588275666263 7.7730 7.7730 110.0200
4573.50 0 0 12.8750 0.0780 0.0640 66.9640 0.1260 0.1260 8.0660 8.0660 0.9066582176716 7.4900 7.4900 102.1600
4574.00 0 0 12.8820 0.0890 0.0690 55.1620 0.1270 0.1270 7.9180 7.9180 0.898615497416186 6.2800 6.2800 60.0970
4574.50 0 0 12.8890 0.1140 0.0760 36.0090 0.1330 0.1330 6.6300 6.6300 0.821513528404773 5.2400 5.2400 23.8990
4575.00 0 0 12.8950 0.1300 0.0760 33.0290 0.1420 0.1420 5.3100 5.3100 0.725094521081469 4.1990 4.1990 1.8760
4575.50 0 0 12.9020 0.1440 0.0680 31.3580 0.1560 0.1560 3.9910 3.9910 0.601081727784023 3.2350 3.2350 1.5790
4576.00 0 0 12.9090 0.1570 0.0560 32.7000 0.1690 0.1690 2.7030 2.7030 0.431846045698725 2.5630 2.5630 1.5490
4576.50 0 0 12.9150 0.1710 0.0380 34.5850 0.1830 0.1830 2.6530 2.6530 0.423737249982329 2.0090 2.0090 1.4940
4577.00 0 0 12.9220 0.1850 0.0250 36.0740 0.1890 0.1890 2.6530 2.6530 0.423737249982329 2.2150 2.2150 1.8320
4577.50 0 0 12.9290 0.1850 0.0180 35.4710 0.1880 0.1880 2.9790 2.9790 0.474070503215044 2.4610 2.4610 2.7030
4578.00 0 0 12.9350 0.1670 0.0290 33.7580 0.1690 0.1690 3.2890 3.2890 0.517063873482655 2.7060 2.7060 2.2850
4578.50 0 0 12.9420 0.1490 0.0480 31.9700 0.1470 0.1470 3.6360 3.6360 0.56062387454993 2.9520 2.9520 1.9360
4579.00 0 0 12.9480 0.1380 0.0620 31.2060 0.1310 0.1310 3.7730 3.7730 0.576686805200996 3.1930 3.1930 1.9360
4579.50 0 0 12.9550 0.1410 0.0620 31.2350 0.1310 0.1310 3.6150 3.6150 0.55810830163055 3.1520 3.1520 1.9410
4580.00 0 0 12.9520 0.1460 0.0540 31.2540 0.1380 0.1380 3.4880 3.4880 0.54257647626053 3.0150 3.0150 1.9560
4580.50 0 0 12.9490 0.1510 0.0470 31.3530 0.1380 0.1380 3.3620 3.3620 0.526597709103452 2.8780 2.8780 1.9720
4581.00 0 0 12.9450 0.1540 0.0400 31.8970 0.1380 0.1380 3.2530 3.2530 0.512284063281854 2.7420 2.7420 1.7650
4581.50 0 0 12.9420 0.1500 0.0360 35.1610 0.1360 0.1360 3.1930 3.1930 0.504198918539445 2.6530 2.6530 2.6040
4582.00 0 0 12.9390 0.1450 0.0380 39.8820 0.1300 0.1300 3.3580 3.3580 0.52608069180203 2.6530 2.6530 2.3740
4582.50 0 0 12.9350 0.1180 0.0470 44.1860 0.1240 0.1240 3.6510 3.6510 0.562411832949727 4.3000 4.3000 2.4180
4583.00 0 0 12.9320 0.0890 0.0580 48.4680 0.1180 0.1180 5.2610 5.2610 0.721068301797159 6.3720 6.3720 20.1350
4583.50 0 0 12.9280 0.0750 0.0600 52.8600 0.1130 0.1130 7.8040 7.8040 0.89231726072248 8.4450 8.4450 47.2460
4584.00 0 0 12.9250 0.0570 0.0550 57.1700 0.1010 0.1010 10.3470 10.3470 1.01481444908705 11.4830 11.4830 46.0930
4584.50 0 0 12.9210 0.0420 0.0570 61.4700 0.0890 0.0890 12.8190 12.8190 1.10785414753686 17.8950 17.8950 17.2440
4585.00 0 0 12.9180 0.0360 0.0700 65.9390 0.0920 0.0920 24.0300 24.0300 1.3807537708039 21.1430 21.1430 63.0990
4585.50 0 0 12.9150 0.0400 0.0750 69.3880 0.0970 0.0970 30.6300 30.6300 1.48614699680657 21.9420 21.9420 56.4480
4586.00 0 0 12.9150 0.0460 0.0720 67.9700 0.1040 0.1040 29.5150 29.5150 1.47004278755721 21.8090 21.8090 41.5570
4586.50 0 0 12.9150 0.0500 0.0630 60.9560 0.0860 0.0860 28.9730 28.9730 1.46199346641502 21.1430 21.1430 26.6660
4587.00 0 0 12.9150 0.0470 0.0540 54.1450 0.0670 0.0670 27.8370 27.8370 1.4446224294425 19.3760 19.3760 16.0120
4587.50 0 0 12.9150 0.0380 0.0460 50.9290 0.0470 0.0470 25.9240 25.9240 1.41370201278111 17.8950 17.8950 51.4630
4588.00 0 0 12.9150 0.0320 0.0420 48.8940 0.0400 0.0400 22.6840 22.6840 1.35571963861396 16.4050 16.4050 43.7920
4588.50 0 0 12.9150 0.0470 0.0430 49.1420 0.0450 0.0450 18.7540 18.7540 1.273093911672 14.7530 14.7530 18.9120
4589.00 0 0 12.9150 0.0640 0.0440 49.9760 0.0620 0.0620 14.8250 14.8250 1.1709947020363 13.1010 13.1010 10.9810
4589.50 0 0 12.9150 0.0810 0.0430 50.8190 0.0760 0.0760 11.4700 11.4700 1.05956341790127 11.4490 11.4490 9.4070
4590.00 0 0 12.9140 0.1000 0.0420 52.6730 0.0880 0.0880 10.4480 10.4480 1.019033163931 9.7970 9.7970 8.3540
4590.50 0 0 12.9100 0.1020 0.0380 57.1500 0.0970 0.0970 9.5300 9.5300 0.979092900638326 8.1450 8.1450 7.4750
4591.00 0 0 12.9070 0.1010 0.0360 61.8670 0.0930 0.0930 9.7390 9.7390 0.988514365833666 7.7730 7.7730 6.5950
4591.50 0 0 12.9030 0.0970 0.0400 65.5580 0.0910 0.0910 10.2890 10.2890 1.01237316722249 8.5750 8.5750 5.8860
4592.00 0 0 12.9000 0.1130 0.0300 61.7070 0.1050 0.1050 11.0530 11.0530 1.04348017002255 9.3550 9.3550 24.9810
4592.50 0 0 12.8960 0.1280 0.0110 50.6210 0.1170 0.1170 10.6890 10.6890 1.02893707707068 8.4680 8.4680 20.7580
4593.00 0 0 12.8930 0.1460 0.0030 38.5960 0.1080 0.1080 10.0750 10.0750 1.00324505481315 7.5870 7.5870 3.9890
4593.50 0 0 12.8890 0.1510 0.0120 34.5910 0.0910 0.0910 8.7220 8.7220 0.940616082337408 6.7070 6.7070 9.6810
4594.00 0 0 12.8850 0.1290 0.0370 32.9880 0.0790 0.0790 7.4100 7.4100 0.869818207979328 5.9490 5.9490 14.8680
4594.50 0 0 12.8820 0.1080 0.0760 36.6040 0.0900 0.0900 6.0990 6.0990 0.785258633357701 5.3410 5.3410 2.8050
4595.00 0 0 12.8780 0.1130 0.0840 47.1040 0.1140 0.1140 4.8910 4.8910 0.689397662821282 4.7330 4.7330 2.5670
4595.50 0 0 12.8750 0.1210 0.0600 56.5720 0.1390 0.1390 4.7130 4.7130 0.673297439759636 4.4580 4.4580 2.2880
4596.00 0 0 12.8710 0.1280 0.0360 58.8060 0.1460 0.1460 5.5870 5.5870 0.747178671360164 5.3420 5.3420 4.1940
4596.50 0 0 12.8680 0.1200 0.0230 59.4800 0.1380 0.1380 7.3420 7.3420 0.865814380167968 6.9510 6.9510 26.4090
4597.00 0 0 12.8640 0.0970 0.0310 57.5360 0.1270 0.1270 9.0980 9.0980 0.958945932493936 8.5590 8.5590 5.8860
4597.50 0 0 12.8600 0.0950 0.0350 55.8690 0.1160 0.1160 10.4550 10.4550 1.01932403715369 10.2630 10.2630 5.9960
4598.00 0 0 12.8570 0.0880 0.0310 51.1280 0.1050 0.1050 10.8210 10.8210 1.03426739703803 10.7610 10.7610 20.3740
4598.50 0 0 12.8530 0.0870 0.0260 45.6660 0.0910 0.0910 11.2100 11.2100 1.04960561259497 11.2890 11.2890 13.3290
4599.00 0 0 12.8500 0.0830 0.0220 40.1280 0.0780 0.0780 11.5990 11.5990 1.06442054843359 11.8180 11.8180 4.8010
4599.50 0 0 12.8460 0.0800 0.0210 36.6620 0.0590 0.0590 12.3530 12.3530 1.09177244141968 12.3530 12.3530 18.1930
4600.00 0 0 12.8420 0.0530 0.0440 37.6970 0.0280 0.0280 12.8190 12.8190 1.10785414753686 12.5840 12.5840 150.7630
4600.50 0 0 12.8390 0.0520 0.0670 39.2030 0.0300 0.0300 10.5980 10.5980 1.02522391517831 10.4420 10.4420 10.5470
4601.00 0 0 12.8350 0.0540 0.0770 39.4110 0.0450 0.0450 8.7430 8.7430 0.941660478388392 8.6540 8.6540 6.6660
4601.50 0 0 12.8350 0.0870 0.0670 38.6110 0.0680 0.0680 6.9550 6.9550 0.842297134328065 6.8660 6.8660 4.2960
4602.00 0 0 12.8350 0.1140 0.0550 37.9040 0.0790 0.0790 6.8270 6.8270 0.834229902851677 5.9960 5.9960 4.7680
4602.50 0 0 12.8350 0.1300 0.0540 37.6270 0.0820 0.0820 6.8760 6.8760 0.837335868015015 5.9960 5.9960 5.2670
4603.00 0 0 12.8350 0.1240 0.0540 38.8420 0.0790 0.0790 7.0850 7.0850 0.850339854583479 6.7970 6.7970 5.0560
4603.50 0 0 12.8350 0.1170 0.0510 42.3160 0.0770 0.0770 8.4030 8.4030 0.924434363543231 7.4900 7.4900 4.8010
4604.00 0 0 12.8350 0.1100 0.0420 51.5040 0.0820 0.0820 9.9120 9.9120 0.996161293368007 10.3740 10.3740 5.6720
4604.50 0 0 12.8350 0.1030 0.0300 64.0200 0.0890 0.0890 11.2600 11.2600 1.05153839051533 13.0370 13.0370 36.1890
4605.00 0 0 12.8350 0.0910 0.0300 61.2230 0.0930 0.0930 11.9040 11.9040 1.0756929182018 14.3270 14.3270 16.7960
4605.50 0 0 12.8350 0.0960 0.0270 57.3520 0.0940 0.0940 11.9040 11.9040 1.0756929182018 13.5570 13.5570 15.1460
4606.00 0 0 12.8350 0.1090 0.0230 51.9150 0.0950 0.0950 10.9740 10.9740 1.04036495586006 12.0930 12.0930 11.9320
