~Version
 VERS.                                 2.0: CWLS LOG ASCII STANDARD - VERSION 2.0
 WRAP.                                  NO: ONE LINE PER DEPTH STEP
 DLM.                                SPACE: DELIMITING CHARACTER(SPACE TAB OR COMMA)
~Well Information
 STRT.ft                               2.0: First reference value
 STOP.ft                           10791.0: Last reference value
 STEP.ft                               0.5: Step increment
 NULL.                             -999.25: Missing value
 WELL.                              PETRO1: Well name
 UWI.                           4200000000: Unique Well ID
 API.                           4200000000: API Number
 LONG.                   -103.663049999873: Longitude
 LATI.                    31.5180500000053: Latitude
~Curve Information
 MD.ft                                    : Measured Depth
 BH_CALI.unitless                     : Bad Hole Caliper = 3in Delta 3ft Window
 BH_DRHO.unitless                     : Bad Hole Density Correction = -0.1>DRHO or DRHO>0.10
 CALI.in                              : Caliper
 DPHI_UNK.v/v                         : Density Porosity Unknown
 DRHO.g/cm3                           : Bulk Density Correction
 GR.gAPI                              : Gamma Ray
 NPHI.v/v                             : Neutron Porosity
 NPHI_UNK.v/v                         : Neutron Porosity Unknown
 RDEEP.ohm.m                          : Deep Resistivity
 RDEEP_LAT.ohm.m                      : Deep Laterolog Resistivity
 RDEEP_LOG_10.unitless                : Deep Resistivity = Log10(RDEEP)
 RSHAL.ohm.m                          : Shallow Resistivity
 RSHAL_LAT.ohm.m                      : Shallow Laterolog Resistivity
 RXO.ohm.m                            : Micro Resistivity
~Ascii Data Section
# ...
9413.00 0 0 8.5490 0.0290 -0.0010 25.3150 -0.0060 -0.0060 1539.4830 1539.4830 3.18737489749582 1443.8400 1443.8400 529.6310
9413.50 0 0 8.5440 0.0360 -0.0030 25.5430 -0.0060 -0.0060 4286.9189 4286.9189 3.63214526759842 1719.7889 1719.7889 865.0280
9414.00 0 0 8.5400 0.0380 -0.0060 29.8970 -0.0070 -0.0070 10990.8174 10990.8174 4.04102999261535 1917.9720 1917.9720 706.3660
9414.50 0 0 8.5290 0.0370 -0.0060 36.1230 -0.0060 -0.0060 10023.7451 10023.7451 4.00103001418412 1943.6740 1943.6740 849.2390
9415.00 0 0 8.5630 0.0350 -0.0080 46.3810 -0.0050 -0.0050 4556.3970 4556.3970 3.65862155724153 1981.6639 1981.6639 622.0500
9415.50 0 0 8.5680 0.0380 -0.0090 51.8980 -0.0050 -0.0050 2133.1919 2133.1919 3.32902992594278 1798.5140 1798.5140 344.3740
9416.00 0 0 8.5660 0.0410 -0.0070 55.6280 -0.0040 -0.0040 2018.5060 2018.5060 3.30503004468664 1422.4270 1422.4270 517.7160
9416.50 0 0 8.5610 0.0390 -0.0010 59.4680 -0.0030 -0.0030 2133.1919 2133.1919 3.32902992594278 1649.6290 1649.6290 732.8750
9417.00 0 0 8.5590 0.0350 0.0010 60.8350 -0.0040 -0.0040 2772.4189 2772.4189 3.44285885083648 1909.9850 1909.9850 669.2800
9417.50 0 0 8.5560 0.0350 0.0040 54.0880 -0.0050 -0.0050 3258.5920 3258.5920 3.51302998696375 -999.25 -999.25 620.9120
9418.00 0 0 8.5530 0.0340 0.0000 48.3820 -0.0060 -0.0060 7888.9780 7888.9780 3.89702074494464 -999.25 -999.25 693.5410
9418.50 0 0 8.5510 0.0290 -0.0030 41.2430 -0.0060 -0.0060 11952.7090 11952.7090 4.07746634632333 -999.25 -999.25 788.9150
9419.00 0 0 8.5480 0.0260 -0.0070 39.4980 -0.0070 -0.0070 29393.9902 29393.9902 4.46825854504557 -999.25 -999.25 720.1970
9419.50 0 0 8.5450 0.0250 -0.0050 38.1440 -0.0070 -0.0070 39905.2461 39905.2461 4.60102999349413 -999.25 -999.25 693.4740
9420.00 0 0 8.5420 0.0230 0.0010 34.1200 -0.0070 -0.0070 42956.6094 42956.6094 4.63302999482878 -999.25 -999.25 507.0260
9420.50 0 0 8.5390 0.0170 0.0070 29.3870 -0.0070 -0.0070 37093.6875 37093.6875 4.56930000888262 -999.25 -999.25 497.7710
9421.00 0 0 8.5360 0.0060 0.0130 29.1430 -0.0070 -0.0070 28052.5684 28052.5684 4.44797262997302 -999.25 -999.25 497.7710
9421.50 0 0 8.5340 -0.0020 0.0190 31.6340 -0.0070 -0.0070 20560.3262 20560.3262 4.31303000068006 -999.25 -999.25 497.7710
9422.00 0 0 8.5310 -0.0020 0.0220 34.5490 -0.0070 -0.0070 13663.9082 13663.9082 4.135574935578 -999.25 -999.25 497.7710
9422.50 0 0 8.5300 0.0020 0.0140 31.1800 -0.0070 -0.0070 7776.1489 7776.1489 3.89076456799708 -999.25 -999.25 364.3290
9423.00 0 0 8.5300 0.0080 0.0060 26.4760 -0.0070 -0.0070 4064.7141 4064.7141 3.60903000401152 -999.25 -999.25 225.4390
9423.50 0 0 8.5300 0.0180 -0.0040 24.4060 -0.0070 -0.0070 3846.1831 3846.1831 3.58502995526045 -999.25 -999.25 479.7670
9424.00 0 0 8.5300 0.0270 -0.0040 26.5250 -0.0060 -0.0060 3199.1160 3199.1160 3.50502998789484 -999.25 -999.25 471.0100
9424.50 0 0 8.5300 0.0270 0.0000 34.5570 -0.0030 -0.0030 2660.9089 2660.9089 3.42503000611675 -999.25 -999.25 167.8920
9425.00 0 0 8.5310 0.0250 0.0140 46.5070 0.0020 0.0020 865.0280 865.0280 2.93703016532456 1229.7610 1229.7610 421.7260
9425.50 0 0 8.5210 0.0230 0.0360 49.0730 0.0080 0.0080 499.6070 499.6070 2.69862851465021 802.9210 802.9210 375.2960
9426.00 0 0 8.4930 0.0210 0.0470 48.3100 0.0130 0.0130 137.0980 137.0980 2.13703111930228 209.4260 209.4260 3.9180
9426.50 0 0 8.4670 0.0050 0.0440 38.5800 0.0080 0.0080 744.0750 744.0750 2.87161671302506 313.9420 313.9420 74.4630
9427.00 0 0 8.4400 0.0070 0.0220 26.5040 0.0030 0.0030 1346.2550 1346.2550 3.12912732928162 827.0160 827.0160 322.3930
9427.50 0 0 8.4140 0.0100 0.0060 19.8190 -0.0020 -0.0020 1948.4351 1948.4351 3.2896859445494 1340.0900 1340.0900 849.2390
9428.00 0 0 8.3860 0.0100 0.0110 17.6690 -0.0050 -0.0050 3380.8821 3380.8821 3.52903002607124 1840.8990 1840.8990 818.5210
9428.50 0 0 8.3770 0.0050 0.0280 15.1710 -0.0050 -0.0050 3199.1160 3199.1160 3.50502998789484 1878.1650 1878.1650 610.0930
9429.00 0 0 8.4080 0.0010 0.0390 14.7490 -0.0060 -0.0060 2812.0950 2812.0950 3.44902998821083 1883.0260 1883.0260 406.5300
9429.50 0 0 8.4370 -0.0020 0.0370 13.9560 -0.0050 -0.0050 2094.2571 2094.2571 3.32102999647237 1887.8870 1887.8870 308.3400
9430.00 0 0 8.4670 -0.0060 0.0380 13.4040 -0.0040 -0.0040 2296.3069 2296.3069 3.36102993079448 1892.7480 1892.7480 553.0820
9430.50 0 0 8.4970 -0.0120 0.0340 13.1500 -0.0030 -0.0030 3443.7371 3443.7371 3.53702998936194 1897.6090 1897.6090 774.5150
9431.00 0 0 8.5260 -0.0090 0.0310 14.2620 -0.0010 -0.0010 3572.9751 3572.9751 3.55302998962246 1902.4709 1902.4709 755.4340
9431.50 0 0 8.5560 -0.0020 0.0280 15.6830 0.0000 0.0000 2864.3760 2864.3760 3.45703002620812 1907.3320 1907.3320 706.3660
9432.00 0 0 8.5870 0.0050 0.0260 17.3440 0.0010 0.0010 2172.8511 2172.8511 3.33702996623584 1909.9850 1909.9850 526.7880
9432.50 0 0 8.6120 0.0120 0.0190 24.0170 0.0020 0.0020 1152.2510 1152.2510 3.06154709370634 1010.7520 1010.7520 13.7100
9433.00 0 0 8.6230 0.0190 0.0060 27.3750 0.0020 0.0020 247.1890 247.1890 2.39302914058509 205.6030 205.6030 325.8590
9433.50 0 0 8.6330 0.0170 0.0020 25.9930 0.0030 0.0030 295.9330 295.9330 2.47119339678887 238.1600 238.1600 155.9660
9434.00 0 0 8.6430 0.0110 0.0040 21.4160 0.0010 0.0010 363.9400 363.9400 2.56102979074587 350.7760 350.7760 465.4660
9434.50 0 0 8.6530 0.0050 0.0140 21.6900 -0.0010 -0.0010 328.5370 328.5370 2.51658428711027 341.4800 341.4800 1205.1190
9435.00 0 0 8.6630 0.0120 0.0170 33.7150 -0.0030 -0.0030 275.9560 275.9560 2.44083984119368 307.6630 307.6630 673.3400
9435.50 0 0 8.6730 0.0240 0.0080 50.7610 -0.0010 -0.0010 225.4390 225.4390 2.35302904933055 256.4660 256.4660 1.5030
9436.00 0 0 8.6830 0.0300 0.0020 59.6730 0.0000 0.0000 985.4250 985.4250 2.9936235760273 571.8020 571.8020 178.5620
9436.50 0 0 8.6920 0.0190 0.0070 55.2180 -0.0010 -0.0010 2971.8711 2971.8711 3.47302996869125 1220.5670 1220.5670 668.3900
9437.00 0 0 8.6920 0.0060 0.0090 45.5760 -0.0030 -0.0030 16208.7129 16208.7129 4.20974852980096 1807.2990 1807.2990 643.3230
9437.50 0 0 8.6920 0.0090 0.0030 43.8720 -0.0040 -0.0040 30782.7480 30782.7480 4.48830738703428 -999.25 -999.25 587.5300
9438.00 0 0 8.6920 0.0140 -0.0030 43.6000 -0.0060 -0.0060 44750.5977 44750.5977 4.65079884023469 -999.25 -999.25 566.2780
9438.50 0 0 8.6920 0.0190 -0.0050 44.1560 -0.0060 -0.0060 50702.5742 50702.5742 4.70503000928353 -999.25 -999.25 774.5150
9439.00 0 0 8.6920 0.0220 -0.0030 39.8140 -0.0070 -0.0070 51645.2031 51645.2031 4.71302998967082 -999.25 -999.25 788.9150
9439.50 0 0 8.6920 0.0220 0.0000 34.5740 -0.0070 -0.0070 50702.5742 50702.5742 4.70503000928353 -999.25 -999.25 788.9150
9440.00 0 0 8.6920 0.0200 0.0020 28.6670 -0.0070 -0.0070 49777.1445 49777.1445 4.69702997938662 -999.25 -999.25 545.7960
9440.50 0 0 8.6920 0.0170 0.0040 24.7130 -0.0080 -0.0080 47976.6563 47976.6563 4.68102997683187 -999.25 -999.25 966.1180
9441.00 0 0 8.6940 0.0110 0.0040 24.2480 -0.0080 -0.0080 44568.7031 44568.7031 4.64902999678063 -999.25 -999.25 948.4840
9441.50 0 0 8.6970 0.0050 0.0050 23.2010 -0.0080 -0.0080 37759.8281 37759.8281 4.57703000852351 -999.25 -999.25 716.7270
9442.00 0 0 8.6990 0.0030 0.0100 22.7210 -0.0080 -0.0080 33808.8203 33808.8203 4.52903001707932 -999.25 -999.25 609.5790
9442.50 0 0 8.7020 -0.0040 0.0230 20.1530 -0.0080 -0.0080 26254.3789 26254.3789 4.41920174863742 -999.25 -999.25 719.4990
9443.00 0 0 8.7050 -0.0140 0.0370 19.7330 -0.0080 -0.0080 12051.1924 12051.1924 4.08103002011587 -999.25 -999.25 667.8420
9443.50 0 0 8.7080 -0.0200 0.0430 21.0600 -0.0080 -0.0080 12275.2402 12275.2402 4.08902999908534 -999.25 -999.25 612.9010
9444.00 0 0 8.7110 -0.0200 0.0450 20.8660 -0.0080 -0.0080 17489.0059 17489.0059 4.24276512426345 -999.25 -999.25 545.7960
9444.50 0 0 8.7140 -0.0170 0.0350 13.9270 -0.0080 -0.0080 22987.5566 22987.5566 4.36149281156804 -999.25 -999.25 590.4520
9445.00 0 0 8.7160 -0.0060 0.0230 10.1760 -0.0080 -0.0080 28486.1074 28486.1074 4.45463310735812 -999.25 -999.25 716.3950
9445.50 0 0 8.7190 0.0040 0.0110 9.4140 -0.0080 -0.0080 33191.7383 33191.7383 4.52102999764298 -999.25 -999.25 760.3790
9446.00 0 0 8.7220 0.0120 0.0110 11.7560 -0.0070 -0.0070 26713.9121 26713.9121 4.42673749262758 -999.25 -999.25 760.3790
