~Version
 VERS.                                 2.0: CWLS LOG ASCII STANDARD - VERSION 2.0
 WRAP.                                  NO: ONE LINE PER DEPTH STEP
 DLM.                                SPACE: DELIMITING CHARACTER(SPACE TAB OR COMMA)
~Well Information
 STRT.ft                               2.0: First reference value
 STOP.ft                           10791.0: Last reference value
 STEP.ft                               0.5: Step increment
 NULL.                             -999.25: Missing value
 WELL.                              PETRO1: Well name
 UWI.                           4200000000: Unique Well ID
 API.                           4200000000: API Number
 LONG.                   -103.663049999873: Longitude
 LATI.                    31.5180500000053: Latitude
~Curve Information
 MD.ft                                    : Measured Depth
 BH_CALI.unitless                     : Bad Hole Caliper = 3in Delta 3ft Window
 BH_DRHO.unitless                     : Bad Hole Density Correction = -0.1>DRHO or DRHO>0.10
 CALI.in                              : Caliper
 DPHI_UNK.v/v                         : Density Porosity Unknown
 DRHO.g/cm3                           : Bulk Density Correction
 GR.gAPI                              : Gamma Ray
 NPHI.v/v                             : Neutron Porosity
 NPHI_UNK.v/v                         : Neutron Porosity Unknown
 RDEEP.ohm.m                          : Deep Resistivity
 RDEEP_LAT.ohm.m                      : Deep Laterolog Resistivity
 RDEEP_LOG_10.unitless                : Deep Resistivity = Log10(RDEEP)
 RSHAL.ohm.m                          : Shallow Resistivity
 RSHAL_LAT.ohm.m                      : Shallow Laterolog Resistivity
 RXO.ohm.m                            : Micro Resistivity
~Ascii Data Section
# ...
2439.00 0 0 12.9630 0.1180 0.0440 51.0190 0.1650 0.1650 6.4030 6.4030 0.806383501824168 4.1390 4.1390 3.1930
2439.50 0 0 12.9520 0.1290 0.0330 50.9920 0.1640 0.1640 6.3390 6.3390 0.802020751771976 4.1390 4.1390 3.8240
2440.00 0 0 12.9440 0.1400 0.0230 51.0240 0.1570 0.1570 7.2460 7.2460 0.860098329698518 4.2170 4.2170 6.7020
2440.50 0 0 12.9350 0.1480 0.0140 51.0590 0.1510 0.1510 8.2170 8.2170 0.914713286973624 5.9960 5.9960 6.4540
2441.00 0 0 12.9260 0.1460 0.0180 52.1800 0.1510 0.1510 8.3990 8.3990 0.924227581260118 5.9960 5.9960 5.9470
2441.50 0 0 12.9180 0.1430 0.0190 54.0640 0.1540 0.1540 8.8010 8.8010 0.944532020991981 6.1170 6.1170 5.4400
2442.00 0 0 12.9090 0.1410 0.0180 56.7890 0.1560 0.1560 9.7080 9.7080 0.987129767659897 6.2230 6.2230 5.0750
2442.50 0 0 12.9000 0.1290 0.0140 59.4020 0.1590 0.1590 11.4500 11.4500 1.05880548667591 8.0220 8.0220 10.8500
2443.00 0 0 12.8910 0.1170 0.0180 58.3420 0.1580 0.1580 13.8060 13.8060 1.14006786905229 10.4550 10.4550 10.2630
2443.50 0 0 12.8820 0.1040 0.0300 57.1630 0.1530 0.1530 15.9130 15.9130 1.20175206277825 14.8660 14.8660 11.7600
2444.00 0 0 12.8740 0.0940 0.0420 57.8230 0.1470 0.1470 20.7550 20.7550 1.31712273771454 28.5400 28.5400 16.2040
2444.50 0 0 12.8650 0.0960 0.0470 59.5860 0.1410 0.1410 50.4660 50.4660 1.70299888335918 42.2140 42.2140 20.0000
2445.00 0 0 12.8560 0.1010 0.0380 61.2460 0.1360 0.1360 77.3970 77.3970 1.88872412723721 55.8880 55.8880 89.0160
2445.50 0 0 12.8470 0.1020 0.0290 62.6450 0.1340 0.1340 135.0640 135.0640 2.13053960746179 110.6280 110.6280 231.7510
2446.00 0 0 12.8380 0.0980 0.0200 64.3980 0.1320 0.1320 204.5510 204.5510 2.31080160699949 171.6450 171.6450 328.3380
2446.50 0 0 12.8300 0.0810 0.0240 66.3960 0.1340 0.1340 277.8990 277.8990 2.44388698400205 216.5170 216.5170 594.1100
2447.00 0 0 12.8210 0.0640 0.0310 88.4420 0.1420 0.1420 352.0850 352.0850 2.54664752306509 277.3100 277.3100 599.2220
2447.50 0 0 12.8120 0.0480 0.0320 106.1540 0.1490 0.1490 417.7820 417.7820 2.62094972461252 328.3380 328.3380 631.6650
2448.00 0 0 12.8030 0.0430 0.0330 104.6280 0.1520 0.1520 425.5960 425.5960 2.62899753755276 328.3380 328.3380 663.9830
2448.50 0 0 12.7950 0.0370 0.0370 94.8860 0.1410 0.1410 371.1360 371.1360 2.5695330827321 297.0080 297.0080 605.2230
2449.00 0 0 12.7900 0.0350 0.0380 79.1270 0.1160 0.1160 266.6510 266.6510 2.42594321672194 245.0420 245.0420 944.2220
2449.50 0 0 12.7860 0.0320 0.0340 63.0180 0.0830 0.0830 183.5540 183.5540 2.26376385306773 193.0750 193.0750 748.5660
2450.00 0 0 12.7820 0.0130 0.0320 54.9580 0.0340 0.0340 134.0670 134.0670 2.12732189133704 141.1090 141.1090 454.1720
2450.50 0 0 12.7780 -0.0060 0.0510 61.2970 0.0320 0.0320 84.5800 84.5800 1.92726768081088 89.1430 89.1430 46.9080
2451.00 0 0 12.7740 -0.0150 0.0650 99.4820 0.0340 0.0340 47.9570 47.9570 1.68085200753364 47.7860 47.7860 51.2650
2451.50 0 0 12.7690 -0.0140 0.0790 123.6190 0.0890 0.0890 56.5840 56.5840 1.75269364507439 64.2790 64.2790 83.3200
2452.00 0 0 12.7650 0.0320 0.0680 141.2140 0.1350 0.1350 60.8030 60.8030 1.78392500774812 63.7100 63.7100 72.0210
2452.50 0 0 12.7610 0.0790 0.0490 133.3180 0.1820 0.1820 58.9130 58.9130 1.77021113868018 61.3860 61.3860 55.4220
2453.00 0 0 12.7560 0.0810 0.0340 113.1640 0.1850 0.1850 57.0730 57.0730 1.75643070151694 59.6870 59.6870 347.1100
2453.50 0 0 12.7540 0.0680 0.0310 99.6250 0.1750 0.1750 59.3550 59.3550 1.77345730932171 59.6870 59.6870 8.5270
2454.00 0 0 12.7540 0.0510 0.0300 93.9870 0.1580 0.1580 61.6380 61.6380 1.78984853849779 62.9230 62.9230 65.6490
2454.50 0 0 12.7540 0.0390 0.0350 99.7760 0.1600 0.1600 63.9210 63.9210 1.805643560597 65.9110 65.9110 226.6500
2455.00 0 0 12.7540 0.0370 0.0430 125.2970 0.1650 0.1650 65.4820 65.4820 1.81612193548791 70.5200 70.5200 125.2600
2455.50 0 0 12.7540 0.0590 0.0480 141.0390 0.1900 0.1900 64.2790 64.2790 1.80806911174625 64.3670 64.3670 165.4000
2456.00 0 0 12.7540 0.0860 0.0360 166.6490 0.2310 0.2310 57.5550 57.5550 1.760083058254 57.6860 57.6860 99.6230
2456.50 0 0 12.7540 0.1140 0.0110 163.7840 0.2280 0.2280 48.4090 48.4090 1.68492611137529 51.0040 51.0040 41.4360
2457.00 0 0 12.7540 0.1030 0.0090 150.4920 0.2200 0.2200 38.9730 38.9730 1.5907638374914 44.3230 44.3230 27.4060
2457.50 0 0 12.7580 0.0830 0.0200 137.1860 0.2120 0.2120 36.9910 36.9910 1.5680960720186 37.6410 37.6410 29.3350
2458.00 0 0 12.7610 0.0620 0.0310 123.8530 0.2130 0.2130 34.2320 34.2320 1.53443227347588 35.5240 35.5240 35.0790
2458.50 0 0 12.7650 0.0540 0.0300 99.0600 0.2120 0.2120 38.0120 38.0120 1.57992072059266 38.3150 38.3150 41.4830
2459.00 0 0 12.7680 0.0490 0.0280 99.9040 0.1930 0.1930 41.8220 41.8220 1.62140479768765 41.8790 41.8790 49.5900
2459.50 0 0 12.7720 0.0440 0.0270 86.8450 0.1610 0.1610 45.6320 45.6320 1.65926950383575 46.0470 46.0470 29.5150
2460.00 0 0 12.7750 0.0510 0.0210 74.2300 0.1340 0.1340 47.7860 47.7860 1.67930067876034 44.6340 44.6340 30.0670
2460.50 0 0 12.7780 0.0660 0.0090 76.4380 0.1220 0.1220 46.3910 46.3910 1.66643373423036 41.3830 41.3830 78.8140
2461.00 0 0 12.7820 0.0670 0.0000 79.5250 0.1230 0.1230 40.7870 40.7870 1.61052176289591 38.1330 38.1330 56.6060
2461.50 0 0 12.7850 0.0610 -0.0020 81.5640 0.1250 0.1250 35.1830 35.1830 1.54633286831919 34.8820 34.8820 27.4060
2462.00 0 0 12.7890 0.0440 0.0010 73.9470 0.1210 0.1210 29.5150 29.5150 1.47004278755721 31.6320 31.6320 25.9240
2462.50 0 0 12.7920 0.0270 0.0230 64.1330 0.0940 0.0940 29.9370 29.9370 1.47620827734555 30.0670 30.0670 31.6330
2463.00 0 0 12.7950 0.0100 0.0450 58.9050 0.0700 0.0700 31.2020 31.2020 1.49418243251606 30.6300 30.6300 38.9730
2463.50 0 0 12.7980 0.0060 0.0480 60.1480 0.0520 0.0520 49.0900 49.0900 1.69099303209987 35.8320 35.8320 29.5150
2464.00 0 0 12.8000 0.0240 0.0400 67.3180 0.0530 0.0530 65.1960 65.1960 1.81422095108135 52.0830 52.0830 43.9370
2464.50 0 0 12.8020 0.0460 0.0230 72.3170 0.0650 0.0650 81.3010 81.3010 1.91009588743676 68.3330 68.3330 55.4220
2465.00 0 0 12.8050 0.0510 0.0220 71.3770 0.0770 0.0770 94.8610 94.8610 1.9770876985595 94.8610 94.8610 199.0760
2465.50 0 0 12.8070 0.0490 0.0220 66.6960 0.0830 0.0830 96.6350 96.6350 1.98513445098954 93.1190 93.1190 145.2490
2466.00 0 0 12.8090 0.0400 0.0160 61.6520 0.0850 0.0850 82.8080 82.8080 1.91807229557743 80.9860 80.9860 78.8140
2466.50 0 0 12.8120 0.0320 0.0100 56.4610 0.0840 0.0840 68.5870 68.5870 1.83624180720403 68.5090 68.5090 235.2080
2467.00 0 0 12.8140 0.0230 0.0040 51.4510 0.0790 0.0790 54.3660 54.3660 1.73532738078849 56.0310 56.0310 142.6100
2467.50 0 0 12.8160 0.0140 0.0020 47.6660 0.0620 0.0620 40.7650 40.7650 1.61028744666005 43.5530 43.5530 83.5680
2468.00 0 0 12.8190 0.0110 0.0010 48.7140 0.0330 0.0330 25.9240 25.9240 1.41370201278111 31.0750 31.0750 26.2720
2468.50 0 0 12.8210 0.0080 0.0080 50.1100 0.0370 0.0370 24.5610 24.5610 1.39024604510922 23.1960 23.1960 20.7550
2469.00 0 0 12.8230 0.0040 0.0190 51.8140 0.0430 0.0430 22.9260 22.9260 1.36032828807205 22.1150 22.1150 21.5390
2469.50 0 0 12.8260 0.0010 0.0300 53.3680 0.0490 0.0490 21.2910 21.2910 1.32819605994855 21.1050 21.1050 31.7860
2470.00 0 0 12.8280 -0.0010 0.0410 57.7450 0.0550 0.0550 20.0000 20.0000 1.30102999566398 20.0000 20.0000 24.0450
2470.50 0 0 12.8300 0.0240 0.0410 66.0650 0.0660 0.0660 19.6330 19.6330 1.2929866665841 20.0000 20.0000 18.2300
2471.00 0 0 12.8330 0.0490 0.0310 76.5810 0.0800 0.0800 21.7610 21.7610 1.33767884895367 21.4410 21.4410 22.2200
2471.50 0 0 12.8350 0.0680 0.0220 77.6160 0.0970 0.0970 26.3770 26.3770 1.42122539934018 26.2390 26.2390 25.8770
2472.00 0 0 12.8390 0.0620 0.0180 75.8920 0.1300 0.1300 30.9930 30.9930 1.49126361626467 31.0370 31.0370 50.5180
2472.50 0 0 12.8420 0.0550 0.0260 73.1030 0.1430 0.1430 35.6100 35.6100 1.55157197367425 35.8350 35.8350 40.4450
2473.00 0 0 12.8460 0.0490 0.0350 70.7540 0.1380 0.1380 40.4450 40.4450 1.6068648397523 40.6330 40.6330 41.2020
2473.50 0 0 12.8500 0.0490 0.0370 68.0760 0.1230 0.1230 42.7570 42.7570 1.63100722578949 43.5570 43.5570 57.5150
2474.00 0 0 12.8530 0.0570 0.0230 62.4030 0.1090 0.1090 46.6710 46.6710 1.6690471064311 44.5690 44.5690 39.0410
