~Version
 VERS.                                 2.0: CWLS LOG ASCII STANDARD - VERSION 2.0
 WRAP.                                  NO: ONE LINE PER DEPTH STEP
 DLM.                                SPACE: DELIMITING CHARACTER(SPACE TAB OR COMMA)
~Well Information
 STRT.ft                               2.0: First reference value
 STOP.ft                           10791.0: Last reference value
 STEP.ft                               0.5: Step increment
 NULL.                             -999.25: Missing value
 WELL.                              PETRO1: Well name
 UWI.                           4200000000: Unique Well ID
 API.                           4200000000: API Number
 LONG.                   -103.663049999873: Longitude
 LATI.                    31.5180500000053: Latitude
~Curve Information
 MD.ft                                    : Measured Depth
 BH_CALI.unitless                     : Bad Hole Caliper = 3in Delta 3ft Window
 BH_DRHO.unitless                     : Bad Hole Density Correction = -0.1>DRHO or DRHO>0.10
 CALI.in                              : Caliper
 DPHI_UNK.v/v                         : Density Porosity Unknown
 DRHO.g/cm3                           : Bulk Density Correction
 GR.gAPI                              : Gamma Ray
 NPHI.v/v                             : Neutron Porosity
 NPHI_UNK.v/v                         : Neutron Porosity Unknown
 RDEEP.ohm.m                          : Deep Resistivity
 RDEEP_LAT.ohm.m                      : Deep Laterolog Resistivity
 RDEEP_LOG_10.unitless                : Deep Resistivity = Log10(RDEEP)
 RSHAL.ohm.m                          : Shallow Resistivity
 RSHAL_LAT.ohm.m                      : Shallow Laterolog Resistivity
 RXO.ohm.m                            : Micro Resistivity
~Ascii Data Section
# ...
7991.50 0 0 8.9680 0.1010 -0.0020 60.7650 0.0910 0.0910 20.4080 20.4080 1.30980044560173 18.2150 18.2150 12.7360
7992.00 0 0 8.9580 0.1070 -0.0040 63.2500 0.0840 0.0840 22.4420 22.4420 1.35106155803238 19.9350 19.9350 16.3270
7992.50 0 0 8.9480 0.1100 -0.0080 65.7350 0.0790 0.0790 25.1790 25.1790 1.40103847783277 21.6560 21.6560 20.4790
7993.00 0 0 8.9370 0.1030 -0.0020 64.3810 0.0810 0.0810 24.7190 24.7190 1.39303089751442 22.9630 22.9630 24.7190
7993.50 0 0 8.9270 0.0910 0.0090 63.1300 0.0820 0.0820 22.8210 22.8210 1.35833467097468 21.6180 21.6180 24.2680
7994.00 0 0 8.9160 0.0780 0.0360 63.4500 0.0840 0.0840 21.0760 21.0760 1.32378818990075 18.4630 18.4630 12.2750
7994.50 0 0 8.9060 0.0950 0.0320 71.0770 0.0860 0.0860 19.3310 19.3310 1.28625432082879 15.0320 15.0320 12.7070
7995.00 0 0 8.8950 0.1120 0.0230 73.9640 0.0870 0.0870 17.5860 17.5860 1.24516706882208 14.7580 14.7580 14.4890
7995.50 0 0 8.8950 0.1290 0.0100 72.8430 0.0870 0.0870 16.7890 16.7890 1.22502482910913 15.5970 15.5970 13.7030
7996.00 0 0 8.8950 0.1360 -0.0030 67.5930 0.0850 0.0850 16.7890 16.7890 1.22502482910913 16.1820 16.1820 11.6150
7996.50 0 0 8.8950 0.1320 -0.0090 60.3150 0.0820 0.0820 17.4190 17.4190 1.24102321915914 21.3880 21.3880 29.1760
7997.00 0 0 8.8950 0.1290 -0.0060 57.7760 0.0730 0.0730 19.4740 19.4740 1.28945516567028 26.0000 26.0000 28.6440
7997.50 0 0 8.8950 0.1260 0.0040 57.6290 0.0620 0.0620 22.1320 22.1320 1.34502066154211 23.8270 23.8270 17.6350
7998.00 0 0 8.8960 0.1270 0.0130 57.3120 0.0640 0.0640 20.4140 20.4140 1.30992811043492 19.4820 19.4820 13.4600
7998.50 0 0 8.9020 0.1310 0.0210 58.4290 0.0730 0.0730 18.0820 18.0820 1.25724646490737 15.0320 15.0320 13.2140
7999.00 0 0 8.9070 0.1360 0.0160 59.7070 0.0820 0.0820 17.1010 17.1010 1.23302150698769 14.4890 14.4890 13.2140
7999.50 0 0 8.9130 0.1400 0.0090 61.9800 0.0860 0.0860 17.4190 17.4190 1.24102321915914 14.4890 14.4890 14.8810
8000.00 0 0 8.9180 0.1400 0.0030 65.5000 0.0830 0.0830 18.3830 18.3830 1.26441638719854 17.4660 17.4660 19.1670
8000.50 0 0 8.9240 0.1370 -0.0010 68.9420 0.0790 0.0790 19.4550 19.4550 1.28903123513976 20.9430 20.9430 21.7290
8001.00 0 0 8.9300 0.1300 0.0060 72.5890 0.0770 0.0770 17.7510 17.7510 1.24922282399667 18.9860 18.9860 18.8590
8001.50 0 0 8.9360 0.1230 0.0130 76.4100 0.0790 0.0790 16.1980 16.1980 1.20946139462999 16.3870 16.3870 14.1190
8002.00 0 0 8.9630 0.1150 0.0200 80.6480 0.0900 0.0900 14.6450 14.6450 1.16568937601762 13.7870 13.7870 10.4000
8002.50 0 0 8.9910 0.1110 0.0200 85.2030 0.1080 0.1080 12.5030 12.5030 1.09701423117803 12.0510 12.0510 10.6480
8003.00 0 0 9.0150 0.1120 0.0160 87.4670 0.1170 0.1170 12.7360 12.7360 1.10503305039359 12.0510 12.0510 11.2400
8003.50 0 0 9.0100 0.1170 0.0110 84.3690 0.1240 0.1240 13.2590 13.2590 1.12251077061032 12.4060 12.4060 11.8320
8004.00 0 0 9.0060 0.1200 0.0070 81.1670 0.1270 0.1270 13.8940 13.8940 1.14282729453834 13.2390 13.2390 12.2750
8004.50 0 0 9.0010 0.1270 0.0020 77.9530 0.1210 0.1210 14.5280 14.5280 1.16220583117701 13.7100 13.7100 12.2750
8005.00 0 0 8.9960 0.1340 -0.0010 75.9720 0.1060 0.1060 14.7580 14.7580 1.16902750600893 13.2140 13.2140 12.2750
8005.50 0 0 8.9910 0.1360 0.0020 79.4410 0.1090 0.1090 14.9340 14.9340 1.17417614699224 13.4600 13.4600 12.2750
8006.00 0 0 8.9860 0.1370 0.0040 84.3240 0.1130 0.1130 15.3310 15.3310 1.18557048364222 13.7600 13.7600 12.5030
8006.50 0 0 8.9810 0.1390 0.0020 88.7030 0.1220 0.1220 15.7280 15.7280 1.19667350048806 14.2250 14.2250 13.3580
8007.00 0 0 8.9760 0.1440 -0.0020 93.9250 0.1310 0.1310 16.1820 16.1820 1.20903219683653 14.6900 14.6900 14.3650
8007.50 0 0 8.9720 0.1460 -0.0040 96.7800 0.1360 0.1360 16.1820 16.1820 1.20903219683653 15.1540 15.1540 15.3120
8008.00 0 0 8.9690 0.1430 -0.0030 107.0150 0.1390 0.1390 18.7000 18.7000 1.2718416065365 17.1260 17.1260 14.0110
8008.50 0 0 8.9660 0.1430 -0.0010 116.4810 0.1570 0.1570 23.5680 23.5680 1.37232272949856 19.8700 19.8700 17.9570
8009.00 0 0 8.9620 0.1450 -0.0020 136.2860 0.1910 0.1910 26.1230 26.1230 1.41702305042196 22.9630 22.9630 21.5170
8009.50 0 0 8.9590 0.1490 -0.0050 138.9310 0.1950 0.1950 24.8340 24.8340 1.3950466767844 23.3900 23.3900 23.8250
8010.00 0 0 8.9550 0.1500 -0.0010 135.9540 0.1910 0.1910 23.1210 23.1210 1.36400661370567 22.3080 22.3080 21.3600
8010.50 0 0 8.9520 0.1460 0.0030 133.9580 0.1810 0.1810 21.4070 21.4070 1.330555809063 21.3030 21.3030 18.3630
8011.00 0 0 8.9480 0.1320 0.0110 129.3770 0.1740 0.1740 19.8170 19.8170 1.29703790937936 20.1850 20.1850 17.0170
8011.50 0 0 8.9450 0.1190 0.0210 122.7490 0.1750 0.1750 22.7610 22.7610 1.35719133878373 19.8170 19.8170 16.4830
8012.00 0 0 8.9420 0.1170 0.0220 112.9850 0.1770 0.1770 28.7700 28.7700 1.45893986189033 23.5600 23.5600 18.8570
8012.50 0 0 8.9380 0.1170 0.0180 97.8280 0.1760 0.1760 34.7780 34.7780 1.54130460314287 28.9590 28.9590 26.9080
8013.00 0 0 8.9340 0.1200 0.0130 89.7360 0.1420 0.1420 40.7870 40.7870 1.61052176289591 34.3580 34.3580 35.7300
8013.50 0 0 8.9120 0.1220 0.0080 76.3960 0.1210 0.1210 43.7550 43.7550 1.64102768817741 39.1770 39.1770 32.3800
8014.00 0 0 8.8940 0.1240 0.0030 65.0110 0.1040 0.1040 39.0530 39.0530 1.59165440142463 28.6440 28.6440 25.1790
8014.50 0 0 8.8750 0.1200 0.0010 65.1760 0.0910 0.0910 32.5860 32.5860 1.51303105317627 27.6080 27.6080 24.7190
8015.00 0 0 8.8560 0.1150 -0.0010 65.3250 0.0870 0.0870 33.8090 33.8090 1.52903232542698 34.4050 34.4050 30.0360
8015.50 0 0 8.8370 0.1100 -0.0030 64.3700 0.0830 0.0830 46.1040 46.1040 1.6637386065733 40.4980 40.4980 37.4510
8016.00 0 0 8.8180 0.1000 -0.0040 61.3940 0.0810 0.0810 90.6920 90.6920 1.9575689793524 88.6910 88.6910 45.3970
8016.50 0 0 8.7990 0.0850 -0.0040 56.1310 0.0620 0.0620 215.9320 215.9320 2.33431700728841 228.6830 228.6830 176.0930
8017.00 0 0 8.7790 0.0700 0.0000 49.9250 0.0440 0.0440 341.1730 341.1730 2.53297465433902 377.5980 377.5980 325.8590
8017.50 0 0 8.7840 0.0540 0.0050 43.7460 0.0270 0.0270 490.0720 490.0720 2.69025989003993 433.6800 433.6800 464.5340
8018.00 0 0 8.8060 0.0440 0.0030 39.2090 0.0120 0.0120 659.3000 659.3000 2.8190830757437 537.9490 537.9490 620.9120
8018.50 0 0 8.8260 0.0420 -0.0010 36.3000 0.0060 0.0060 833.7390 833.7390 2.92103011706456 668.3900 668.3900 644.2140
8019.00 0 0 8.8460 0.0420 -0.0050 35.8900 0.0050 0.0050 775.5290 775.5290 2.88959804238753 620.9120 620.9120 482.7760
8019.50 0 0 8.8660 0.0400 -0.0040 35.4170 0.0050 0.0050 609.4990 609.4990 2.7849729974116 444.6180 444.6180 363.9400
8020.00 0 0 8.8850 0.0380 0.0020 36.9410 0.0060 0.0060 443.4690 443.4690 2.64686326655898 305.7730 305.7730 338.0880
8020.50 0 0 8.9120 0.0420 0.0030 39.0030 0.0070 0.0070 323.2920 323.2920 2.50959495794022 249.7560 249.7560 233.9780
8021.00 0 0 8.9460 0.0550 0.0040 41.9070 0.0090 0.0090 238.8890 238.8890 2.37819615247367 193.7390 193.7390 125.5470
8021.50 0 0 8.9790 0.0640 0.0100 47.2250 0.0130 0.0130 154.4850 154.4850 2.18888631720109 137.7210 137.7210 68.7460
8022.00 0 0 9.0130 0.0700 0.0170 55.2740 0.0200 0.0200 70.0820 70.0820 1.84560648723208 81.7040 81.7040 50.9380
8022.50 0 0 9.0460 0.0760 0.0150 62.6120 0.0350 0.0350 31.5450 31.5450 1.498930531742 35.7300 35.7300 33.1300
8023.00 0 0 9.0790 0.0830 0.0090 71.0520 0.0500 0.0500 26.5370 26.5370 1.42385182444069 29.1080 29.1080 21.1520
8023.50 0 0 9.1170 0.0900 0.0040 74.2800 0.0630 0.0630 21.5300 21.5300 1.33304402982349 23.4930 23.4930 18.5900
8024.00 0 0 9.1620 0.1060 0.0020 78.6100 0.0750 0.0750 16.4830 16.4830 1.21703625862763 17.8780 17.8780 16.0270
8024.50 0 0 9.2060 0.1270 -0.0010 80.7150 0.0870 0.0870 15.8870 15.8870 1.20104189554268 15.3120 15.3120 13.9650
8025.00 0 0 9.2500 0.1340 0.0000 83.9080 0.0960 0.0960 14.8460 14.8460 1.17160945621667 14.3760 14.3760 12.9550
8025.50 0 0 9.2940 0.1350 0.0020 85.2880 0.1060 0.1060 13.9760 13.9760 1.14538289197487 13.5530 13.5530 12.3060
8026.00 0 0 9.3390 0.1270 0.0040 88.4700 0.1140 0.1140 13.4600 13.4600 1.12904505988796 12.7360 12.7360 11.6570
8026.50 0 0 9.3830 0.1190 0.0050 93.1030 0.1250 0.1250 12.9730 12.9730 1.11304041808782 12.0510 12.0510 11.1950
