~Version
 VERS.                                 2.0: CWLS LOG ASCII STANDARD - VERSION 2.0
 WRAP.                                  NO: ONE LINE PER DEPTH STEP
 DLM.                                SPACE: DELIMITING CHARACTER(SPACE TAB OR COMMA)
~Well Information
 STRT.ft                               2.0: First reference value
 STOP.ft                           10791.0: Last reference value
 STEP.ft                               0.5: Step increment
 NULL.                             -999.25: Missing value
 WELL.                              PETRO1: Well name
 UWI.                           4200000000: Unique Well ID
 API.                           4200000000: API Number
 LONG.                   -103.663049999873: Longitude
 LATI.                    31.5180500000053: Latitude
~Curve Information
 MD.ft                                    : Measured Depth
 BH_CALI.unitless                     : Bad Hole Caliper = 3in Delta 3ft Window
 BH_DRHO.unitless                     : Bad Hole Density Correction = -0.1>DRHO or DRHO>0.10
 CALI.in                              : Caliper
 DPHI_UNK.v/v                         : Density Porosity Unknown
 DRHO.g/cm3                           : Bulk Density Correction
 GR.gAPI                              : Gamma Ray
 NPHI.v/v                             : Neutron Porosity
 NPHI_UNK.v/v                         : Neutron Porosity Unknown
 RDEEP.ohm.m                          : Deep Resistivity
 RDEEP_LAT.ohm.m                      : Deep Laterolog Resistivity
 RDEEP_LOG_10.unitless                : Deep Resistivity = Log10(RDEEP)
 RSHAL.ohm.m                          : Shallow Resistivity
 RSHAL_LAT.ohm.m                      : Shallow Laterolog Resistivity
 RXO.ohm.m                            : Micro Resistivity
~Ascii Data Section
# ...
5268.00 0 0 8.4110 0.1170 0.0080 114.1920 0.1230 0.1230 339.3980 339.3980 2.53070927878448 281.8890 281.8890 114.0330
5268.50 0 0 8.4080 0.1380 0.0100 127.8780 0.1310 0.1310 319.9120 319.9120 2.50503053091261 286.4380 286.4380 421.7260
5269.00 0 0 8.3920 0.1640 0.0040 133.8360 0.1400 0.1400 355.4880 355.4880 2.55082494508901 295.6330 295.6330 346.8700
5269.50 0 0 8.3780 0.1920 -0.0010 143.5060 0.1480 0.1480 426.6420 426.6420 2.63006360655268 303.5900 303.5900 184.0900
5270.00 0 0 8.3620 0.1950 -0.0060 159.5900 0.1540 0.1540 545.7960 545.7960 2.73703034851179 308.3400 308.3400 545.7960
5270.50 0 0 8.3470 0.1730 -0.0120 155.3880 0.1560 0.1560 505.5050 505.5050 2.70372545559798 302.7120 302.7120 487.4600
5271.00 0 0 8.3320 0.1440 -0.0160 143.5820 0.1400 0.1400 381.6850 381.6850 2.58170509276222 278.9060 278.9060 308.1870
5271.50 0 0 8.3310 0.1220 -0.0110 126.7410 0.1220 0.1220 257.8640 257.8640 2.4113907151792 253.2690 253.2690 57.6810
5272.00 0 0 8.3350 0.1230 -0.0060 128.9220 0.1140 0.1140 201.8510 201.8510 2.30503090531139 217.2850 217.2850 142.3120
5272.50 0 0 8.3390 0.1430 -0.0020 146.8220 0.1200 0.1200 232.2740 232.2740 2.36600059900178 232.1570 232.1570 271.0380
5273.00 0 0 8.3430 0.1610 0.0000 168.0540 0.1320 0.1320 296.2500 296.2500 2.47165835901816 273.7980 273.7980 158.8660
5273.50 0 0 8.3480 0.1800 0.0010 181.4680 0.1450 0.1450 360.2260 360.2260 2.55657505564904 315.4390 315.4390 278.9540
5274.00 0 0 8.3520 0.1980 0.0040 181.9080 0.1570 0.1570 424.2020 424.2020 2.62757271176875 357.0810 357.0810 414.0280
5274.50 0 0 8.3560 0.2070 0.0080 175.8460 0.1610 0.1610 488.6860 488.6860 2.68902989742834 399.0520 399.0520 390.0390
5275.00 0 0 8.3600 0.2030 0.0100 160.3010 0.1590 0.1590 507.0260 507.0260 2.70503023027418 414.0280 414.0280 328.3530
5275.50 0 0 8.3640 0.1970 0.0060 140.8170 0.1560 0.1560 516.4520 516.4520 2.71302996360232 414.0280 414.0280 242.6780
5276.00 0 0 8.3680 0.1910 0.0030 123.8970 0.1540 0.1540 526.0540 526.0540 2.72103032723036 423.8950 423.8950 269.2470
5276.50 0 0 8.3670 0.1780 -0.0010 113.2560 0.1430 0.1430 573.0990 573.0990 2.75822965065831 429.5660 429.5660 393.2350
5277.00 0 0 8.3650 0.1660 -0.0050 108.2380 0.1320 0.1320 684.9410 684.9410 2.83565316349537 522.1700 522.1700 488.6860
5277.50 0 0 8.3630 0.1540 -0.0100 103.5180 0.1260 0.1260 796.7840 796.7840 2.90134060455535 612.6200 612.6200 479.7670
5278.00 0 0 8.3610 0.1440 -0.0130 99.5310 0.1240 0.1240 881.1100 881.1100 2.9450301302178 693.4740 693.4740 536.4510
5278.50 0 0 8.3590 0.1420 -0.0080 97.2820 0.1150 0.1150 928.7830 928.7830 2.9679142576847 760.3740 760.3740 609.5790
5279.00 0 0 8.3570 0.1390 -0.0040 98.2160 0.1060 0.1060 984.9210 984.9210 2.99340139736056 833.7390 833.7390 582.0160
5279.50 0 0 8.3550 0.1370 0.0000 99.8020 0.0950 0.0950 1041.0601 1041.0601 3.017475801888 790.7030 790.7030 516.4520
5280.00 0 0 8.3530 0.1410 0.0050 109.0360 0.0890 0.0890 1059.3270 1059.3270 3.02503004166969 688.7060 688.7060 609.5790
5280.50 0 0 8.3510 0.1510 0.0030 117.8880 0.0980 0.0980 804.5370 804.5370 2.9055460217431 561.5060 561.5060 497.6740
5281.00 0 0 8.3490 0.1610 -0.0010 129.2830 0.1110 0.1110 515.3170 515.3170 2.71207446981293 434.3060 434.3060 242.6780
5281.50 0 0 8.3480 0.1700 -0.0020 128.2540 0.1240 0.1240 350.7760 350.7760 2.54502987139831 363.9400 363.9400 107.9020
5282.00 0 0 8.3460 0.1710 0.0010 124.8010 0.1390 0.1390 357.2980 357.2980 2.55303058521617 399.0520 399.0520 285.2640
5282.50 0 0 8.3440 0.1690 0.0020 121.8210 0.1400 0.1400 463.0280 463.0280 2.66560725425297 472.4550 472.4550 406.4710
5283.00 0 0 8.3420 0.1580 0.0100 121.8410 0.1310 0.1310 655.1060 655.1060 2.81631157707651 585.7130 585.7130 533.9260
5283.50 0 0 8.3400 0.1470 0.0180 131.7080 0.1240 0.1240 847.1850 847.1850 2.92797825768146 698.9710 698.9710 632.4560
5284.00 0 0 8.3380 0.1440 0.0260 147.1990 0.1260 0.1260 931.1720 931.1720 2.96902990842661 818.5210 818.5210 516.4520
5284.50 0 0 8.3360 0.1520 0.0180 167.6450 0.1340 0.1340 966.1180 966.1180 2.98503017364028 822.7210 822.7210 840.4670
5285.00 0 0 8.3340 0.1610 0.0130 165.7900 0.1430 0.1430 1022.2520 1022.2520 3.00955796890905 830.3910 830.3910 557.7300
5285.50 0 0 8.3320 0.1620 0.0140 150.8510 0.1320 0.1320 1071.0310 1071.0310 3.02980204126519 833.7390 833.7390 86.5030
5286.00 0 0 8.3300 0.1650 0.0190 152.0600 0.1240 0.1240 1119.8101 1119.8101 3.04914438024638 874.4350 874.4350 498.1600
5286.50 0 0 8.3280 0.1820 0.0100 155.8760 0.1330 0.1330 1140.3290 1140.3290 3.05703016911784 931.1720 931.1720 714.1050
5287.00 0 0 8.3320 0.1990 -0.0010 157.9850 0.1420 0.1420 1079.7620 1079.7620 3.03332803930423 914.1760 914.1760 608.7080
5287.50 0 0 8.3380 0.2080 -0.0060 157.0930 0.1520 0.1520 1002.6780 1002.6780 3.00116148608589 843.3220 843.3220 453.9730
5288.00 0 0 8.3430 0.2070 -0.0090 162.1660 0.1610 0.1610 925.5940 925.5940 2.96642053071537 752.3190 752.3190 566.2780
5288.50 0 0 8.3490 0.1960 -0.0120 172.5120 0.1630 0.1630 849.2390 849.2390 2.92902993026065 656.1910 656.1910 352.2830
5289.00 0 0 8.3550 0.1870 -0.0140 170.8470 0.1630 0.1630 865.0280 865.0280 2.93703016532456 644.2140 644.2140 598.4530
5289.50 0 0 8.3600 0.1660 -0.0080 156.5120 0.1400 0.1400 925.8810 925.8810 2.96655517203357 689.9630 689.9630 732.8750
5290.00 0 0 8.3660 0.1390 -0.0020 142.3020 0.1200 0.1200 966.1180 966.1180 2.98503017364028 732.8750 732.8750 555.9430
5290.50 0 0 8.3720 0.1260 0.0040 135.1020 0.1260 0.1260 879.8560 879.8560 2.94441159996525 673.2660 673.2660 516.4520
5291.00 0 0 8.3770 0.1390 0.0090 150.4280 0.1230 0.1230 773.1010 773.1010 2.88823623502739 601.3490 601.3490 566.2780
5291.50 0 0 8.3830 0.1560 0.0040 165.3510 0.1400 0.1400 666.3460 666.3460 2.823699795043 551.4400 551.4400 479.7670
5292.00 0 0 8.3890 0.1730 -0.0020 180.5420 0.1570 0.1570 598.4530 598.4530 2.77703004840632 494.7860 494.7860 413.0210
5292.50 0 0 8.3940 0.1890 -0.0040 186.2320 0.1730 0.1730 481.2890 481.2890 2.68240593586416 438.1310 438.1310 299.5730
5293.00 0 0 8.4000 0.1990 -0.0030 185.9690 0.1830 0.1830 371.9360 371.9360 2.57046821612364 381.4760 381.4760 109.9080
5293.50 0 0 8.4060 0.1960 -0.0030 187.4340 0.1800 0.1800 325.8590 325.8590 2.51302972041021 350.7760 350.7760 297.1870
5294.00 0 0 8.4080 0.1940 -0.0030 193.9760 0.1780 0.1780 319.9120 319.9120 2.50503053091261 357.2980 357.2980 242.8830
5294.50 0 0 8.4050 0.1970 -0.0020 199.9830 0.1780 0.1780 319.9120 319.9120 2.50503053091261 401.9190 401.9190 164.8280
5295.00 0 0 8.4020 0.1990 -0.0030 198.1370 0.1800 0.1800 350.5000 350.5000 2.54468802230268 437.5520 437.5520 254.0010
5295.50 0 0 8.3990 0.1960 -0.0020 195.0120 0.1780 0.1780 414.0280 414.0280 2.61702971270132 417.2240 417.2240 325.8590
5296.00 0 0 8.3960 0.1890 -0.0020 181.3230 0.1760 0.1760 372.8100 372.8100 2.5714875530558 389.0780 389.0780 171.0130
5296.50 0 0 8.3930 0.1790 0.0040 169.8160 0.1770 0.1770 328.4210 328.4210 2.51643091913112 360.9310 360.9310 256.4660
5297.00 0 0 8.3910 0.1840 0.0050 151.4480 0.1720 0.1720 285.9320 285.9320 2.45626276202371 332.7840 332.7840 193.4800
5297.50 0 0 8.3880 0.1920 0.0000 142.4580 0.1630 0.1630 245.0140 245.0140 2.38919090048304 287.6540 287.6540 122.7520
5298.00 0 0 8.3850 0.2010 -0.0030 136.8760 0.1530 0.1530 204.0950 204.0950 2.30983236532848 236.9820 236.9820 98.9110
5298.50 0 0 8.3820 0.1990 -0.0060 132.1430 0.1590 0.1590 163.1760 163.1760 2.21265628288572 186.3100 186.3100 55.5940
5299.00 0 0 8.3790 0.1900 -0.0070 126.7430 0.1770 0.1770 129.7270 129.7270 2.11303037493272 144.8870 144.8870 53.5830
5299.50 0 0 8.3770 0.1770 -0.0010 121.5110 0.1780 0.1780 224.7380 224.7380 2.35167651164924 224.5630 224.5630 143.9350
5300.00 0 0 8.3740 0.1610 0.0060 117.2530 0.1700 0.1700 345.6600 345.6600 2.53864912561017 325.9680 325.9680 272.5220
5300.50 0 0 8.3710 0.1620 0.0120 123.1790 0.1340 0.1340 466.5830 466.5830 2.6689289111815 427.3740 427.3740 403.8440
5301.00 0 0 8.3690 0.1650 0.0180 136.0800 0.1200 0.1200 609.5790 609.5790 2.78502999714189 528.7790 528.7790 480.2030
5301.50 0 0 8.3710 0.1710 0.0160 146.7110 0.1200 0.1200 653.9570 653.9570 2.81554919285535 598.4530 598.4530 308.3400
