~Version
 VERS.                                 2.0: CWLS LOG ASCII STANDARD - VERSION 2.0
 WRAP.                                  NO: ONE LINE PER DEPTH STEP
 DLM.                                SPACE: DELIMITING CHARACTER(SPACE TAB OR COMMA)
~Well Information
 STRT.ft                               2.0: First reference value
 STOP.ft                           10791.0: Last reference value
 STEP.ft                               0.5: Step increment
 NULL.                             -999.25: Missing value
 WELL.                              PETRO1: Well name
 UWI.                           4200000000: Unique Well ID
 API.                           4200000000: API Number
 LONG.                   -103.663049999873: Longitude
 LATI.                    31.5180500000053: Latitude
~Curve Information
 MD.ft                                    : Measured Depth
 BH_CALI.unitless                     : Bad Hole Caliper = 3in Delta 3ft Window
 BH_DRHO.unitless                     : Bad Hole Density Correction = -0.1>DRHO or DRHO>0.10
 CALI.in                              : Caliper
 DPHI_UNK.v/v                         : Density Porosity Unknown
 DRHO.g/cm3                           : Bulk Density Correction
 GR.gAPI                              : Gamma Ray
 NPHI.v/v                             : Neutron Porosity
 NPHI_UNK.v/v                         : Neutron Porosity Unknown
 RDEEP.ohm.m                          : Deep Resistivity
 RDEEP_LAT.ohm.m                      : Deep Laterolog Resistivity
 RDEEP_LOG_10.unitless                : Deep Resistivity = Log10(RDEEP)
 RSHAL.ohm.m                          : Shallow Resistivity
 RSHAL_LAT.ohm.m                      : Shallow Laterolog Resistivity
 RXO.ohm.m                            : Micro Resistivity
~Ascii Data Section
# ...
3166.50 0 0 13.0460 0.1350 0.0310 51.2170 0.1440 0.1440 5.0900 5.0900 0.706717782336759 3.7180 3.7180 3.5620
3167.00 0 0 13.0500 0.1310 0.0220 47.6910 0.1440 0.1440 4.9370 4.9370 0.693463127219531 3.4390 3.4390 2.6830
3167.50 0 0 13.0530 0.1260 0.0220 44.3360 0.1410 0.1410 4.7830 4.7830 0.679700380871964 3.3760 3.3760 2.2460
3168.00 0 0 13.0560 0.1280 0.0260 43.6490 0.1370 0.1370 4.6260 4.6260 0.665205628434601 3.3140 3.3140 3.1350
3168.50 0 0 13.0590 0.1280 0.0370 44.0930 0.1370 0.1370 4.8870 4.8870 0.689042339028172 3.4150 3.4150 2.4640
3169.00 0 0 13.0630 0.1250 0.0440 46.4070 0.1390 0.1390 5.1530 5.1530 0.712060142461075 3.5880 3.5880 2.6110
3169.50 0 0 13.0660 0.1210 0.0410 48.5550 0.1410 0.1410 5.4200 5.4200 0.733999286538387 3.7610 3.7610 2.7350
3170.00 0 0 13.0690 0.1210 0.0340 49.5370 0.1400 0.1400 5.6870 5.6870 0.754883228252168 3.9340 3.9340 3.1510
3170.50 0 0 13.0730 0.1240 0.0310 49.6130 0.1330 0.1330 5.8860 5.8860 0.769820257763592 4.1390 4.1390 4.1390
3171.00 0 0 13.0760 0.1250 0.0350 49.7780 0.1260 0.1260 5.7780 5.7780 0.761777537508178 4.0660 4.0660 3.6350
3171.50 0 0 13.0750 0.1210 0.0390 49.6190 0.1230 0.1230 5.5030 5.5030 0.740599512811156 3.9080 3.9080 2.7530
3172.00 0 0 13.0720 0.1230 0.0430 49.4030 0.1260 0.1260 5.2450 5.2450 0.719745492529577 3.7500 3.7500 3.8440
3172.50 0 0 13.0690 0.1260 0.0460 49.1750 0.1370 0.1370 5.0750 5.0750 0.70543604658525 3.7040 3.7040 2.7030
3173.00 0 0 13.0670 0.1300 0.0440 48.8820 0.1350 0.1350 5.2040 5.2040 0.716337287889549 3.8440 3.8440 4.8010
3173.50 0 0 13.0640 0.1300 0.0430 47.7450 0.1310 0.1310 5.2670 5.2670 0.721563318357481 4.2170 4.2170 4.7130
3174.00 0 0 13.0620 0.1220 0.0400 47.1420 0.1250 0.1250 5.0980 5.0980 0.707399831133249 4.2170 4.2170 2.2460
3174.50 0 0 13.0590 0.1250 0.0320 48.3940 0.1290 0.1290 4.9690 4.9690 0.696268996745533 3.8650 3.8650 2.3940
3175.00 0 0 13.0560 0.1340 0.0330 49.6700 0.1370 0.1370 4.8390 4.8390 0.684755622108624 3.5030 3.5030 2.7880
3175.50 0 0 13.0540 0.1410 0.0360 50.0830 0.1450 0.1450 4.7100 4.7100 0.673020907128896 3.4390 3.4390 3.0210
3176.00 0 0 13.0510 0.1420 0.0400 50.4870 0.1470 0.1470 4.5810 4.5810 0.660960291776084 3.3370 3.3370 2.7250
3176.50 0 0 13.0490 0.1450 0.0420 50.8090 0.1480 0.1480 4.4580 4.4580 0.649140064144219 3.2530 3.2530 2.0850
3177.00 0 0 13.0460 0.1500 0.0360 51.1730 0.1550 0.1550 4.6630 4.6630 0.668665415454492 3.3140 3.3140 2.2260
3177.50 0 0 13.0440 0.1550 0.0310 51.5970 0.1600 0.1600 4.9760 4.9760 0.696880371682762 3.4850 3.4850 2.4420
3178.00 0 0 13.0410 0.1600 0.0250 49.5620 0.1680 0.1680 5.1700 5.1700 0.713490543093942 3.7040 3.7040 3.0240
3178.50 0 0 13.0380 0.1450 0.0290 45.9640 0.1540 0.1540 7.1530 7.1530 0.85448822504443 5.0110 5.0110 3.7760
3179.00 0 0 13.0360 0.1290 0.0390 42.4040 0.1320 0.1320 9.3610 9.3610 0.971322245242813 6.1100 6.1100 4.4320
3179.50 0 0 13.0360 0.1130 0.0460 40.1800 0.1090 0.1090 12.3530 12.3530 1.09177244141968 7.2090 7.2090 5.8050
3180.00 0 0 13.0360 0.1030 0.0440 42.5310 0.0920 0.0920 12.1260 12.1260 1.08371756389895 8.0660 8.0660 7.7730
3180.50 0 0 13.0360 0.1020 0.0380 46.4100 0.0910 0.0910 10.4620 10.4620 1.01961471569142 7.4700 7.4700 5.5070
3181.00 0 0 13.0360 0.1100 0.0320 50.0780 0.0920 0.0920 8.7300 8.7300 0.94101424370557 6.4200 6.4200 4.5410
3181.50 0 0 13.0360 0.1170 0.0320 54.1970 0.0970 0.0970 7.2170 7.2170 0.858356705297773 5.1700 5.1700 3.9670
3182.00 0 0 13.0360 0.1210 0.0370 58.8180 0.1040 0.1040 7.0850 7.0850 0.850339854583479 5.0750 5.0750 2.7530
3182.50 0 0 13.0360 0.1140 0.0440 63.2470 0.1120 0.1120 8.5450 8.5450 0.931712067056756 5.9020 5.9020 11.2600
3183.00 0 0 13.0360 0.1060 0.0480 64.9230 0.1190 0.1190 10.4550 10.4550 1.01932403715369 7.0630 7.0630 9.7080
3183.50 0 0 13.0360 0.0980 0.0460 63.0690 0.1190 0.1190 10.2630 10.2630 1.01127432890472 8.3710 8.3710 10.0750
3184.00 0 0 13.0360 0.1000 0.0420 60.3810 0.1180 0.1180 8.8520 8.8520 0.94704140525522 7.9280 7.9280 8.1960
3184.50 0 0 13.0360 0.1070 0.0360 57.7160 0.1180 0.1180 7.0850 7.0850 0.850339854583479 7.0050 7.0050 3.8440
3185.00 0 0 13.0360 0.1140 0.0300 55.1520 0.1270 0.1270 6.8270 6.8270 0.834229902851677 6.0830 6.0830 9.0150
3185.50 0 0 13.0360 0.1200 0.0250 52.3840 0.1350 0.1350 7.0100 7.0100 0.845718017966659 5.3650 5.3650 8.8490
3186.00 0 0 13.0360 0.1210 0.0230 51.3570 0.1390 0.1390 7.0850 7.0850 0.850339854583479 5.4940 5.4940 5.2670
3186.50 0 0 13.0360 0.1150 0.0270 51.5510 0.1310 0.1310 7.0850 7.0850 0.850339854583479 5.7300 5.7300 17.2440
3187.00 0 0 13.0360 0.1080 0.0280 54.3520 0.1160 0.1160 7.0850 7.0850 0.850339854583479 5.9660 5.9660 4.0630
3187.50 0 0 13.0360 0.1120 0.0270 56.4420 0.1180 0.1180 6.9550 6.9550 0.842297134328065 6.2230 6.2230 4.4770
3188.00 0 0 13.0360 0.1220 0.0260 57.6050 0.1250 0.1250 6.9550 6.9550 0.842297134328065 5.1700 5.1700 5.2670
3188.50 0 0 13.0360 0.1290 0.0310 59.0980 0.1310 0.1310 7.0850 7.0850 0.850339854583479 6.4830 6.4830 5.4380
3189.00 0 0 13.0360 0.1250 0.0380 58.3120 0.1320 0.1320 8.4940 8.4940 0.929112256654661 8.0860 8.0860 5.6720
3189.50 0 0 13.0360 0.1140 0.0360 55.9370 0.1260 0.1260 9.8600 9.8600 0.993876914941211 9.6890 9.6890 11.2600
3190.00 0 0 13.0360 0.1020 0.0330 53.9280 0.1140 0.1140 11.2600 11.2600 1.05153839051533 11.0530 11.0530 5.9960
3190.50 0 0 13.0330 0.0910 0.0290 51.6960 0.1030 0.1030 10.9020 10.9020 1.03750617769168 10.4980 10.4980 114.1750
3191.00 0 0 13.0310 0.0820 0.0310 51.9430 0.0990 0.0990 10.1700 10.1700 1.00732095292274 9.3600 9.3600 4.8010
3191.50 0 0 13.0280 0.0830 0.0380 54.0620 0.1000 0.1000 9.5300 9.5300 0.979092900638326 8.2230 8.2230 6.4580
3192.00 0 0 13.0250 0.0930 0.0420 56.6600 0.1130 0.1130 9.1830 9.1830 0.962984584316997 7.9180 7.9180 5.3650
3192.50 0 0 13.0230 0.1020 0.0330 57.4620 0.1300 0.1300 9.5260 9.5260 0.978910577175572 8.7970 8.7970 8.9500
3193.00 0 0 13.0200 0.1100 0.0300 55.9920 0.1310 0.1310 10.1470 10.1470 1.00633766037455 10.3920 10.3920 12.7440
3193.50 0 0 13.0180 0.1120 0.0280 54.7280 0.1280 0.1280 10.6510 10.6510 1.02739038468497 12.1260 12.1260 14.5950
3194.00 0 0 13.0150 0.1080 0.0330 53.3520 0.1230 0.1230 10.8500 10.8500 1.03542973818455 11.6260 11.6260 11.0530
3194.50 0 0 13.0130 0.0940 0.0520 52.5350 0.1170 0.1170 10.4220 10.4220 1.01795106883074 10.3800 10.3800 11.4610
3195.00 0 0 13.0100 0.0830 0.0660 52.5800 0.1110 0.1110 9.7250 9.7250 0.987889609997745 9.1830 9.1830 5.1700
3195.50 0 0 13.0070 0.0900 0.0630 51.7430 0.1090 0.1090 9.0270 9.0270 0.955543442459743 8.6910 8.6910 7.9180
3196.00 0 0 13.0050 0.0990 0.0520 50.9990 0.1090 0.1090 8.3300 8.3300 0.920645001406788 8.1910 8.1910 7.2550
3196.50 0 0 13.0020 0.1080 0.0480 50.6230 0.1140 0.1140 7.6330 7.6330 0.882695262381597 7.6900 7.6900 5.6720
3197.00 0 0 13.0000 0.1160 0.0490 50.8630 0.1210 0.1210 6.9350 6.9350 0.841046465409304 7.1890 7.1890 4.5350
3197.50 0 0 12.9970 0.1250 0.0420 51.0010 0.1280 0.1280 6.3390 6.3390 0.802020751771976 6.6880 6.6880 3.9740
3198.00 0 0 12.9960 0.1340 0.0340 51.3590 0.1350 0.1350 6.2230 6.2230 0.79399980098447 6.1870 6.1870 3.9280
3198.50 0 0 12.9960 0.1350 0.0350 50.7100 0.1410 0.1410 6.9550 6.9550 0.842297134328065 5.6870 5.6870 11.6850
3199.00 0 0 12.9960 0.1300 0.0380 49.8500 0.1470 0.1470 6.9550 6.9550 0.842297134328065 5.3650 5.3650 5.3000
3199.50 0 0 12.9960 0.1260 0.0400 48.8780 0.1490 0.1490 6.8040 6.8040 0.832764304940531 5.1270 5.1270 4.1390
3200.00 0 0 12.9960 0.1210 0.0420 48.9550 0.1410 0.1410 6.6100 6.6100 0.82020145948564 4.9820 4.9820 6.3390
3200.50 0 0 12.9960 0.1160 0.0370 49.7490 0.1260 0.1260 6.4150 6.4150 0.807196660710947 5.0540 5.0540 5.0870
3201.00 0 0 12.9960 0.1130 0.0340 50.4720 0.1190 0.1190 6.2230 6.2230 0.79399980098447 5.1130 5.1130 4.0420
3201.50 0 0 12.9960 0.1200 0.0230 51.1750 0.1170 0.1170 6.2230 6.2230 0.79399980098447 5.1730 5.1730 3.0210
3202.00 0 0 12.9960 0.1270 0.0140 51.7770 0.1170 0.1170 6.4580 6.4580 0.810098040681143 5.2330 5.2330 17.2440
3202.50 0 0 12.9960 0.1300 0.0100 51.5430 0.1160 0.1160 6.4580 6.4580 0.810098040681143 5.2670 5.2670 4.8910
3203.00 0 0 12.9960 0.1310 0.0150 51.3420 0.1160 0.1160 6.4290 6.4290 0.808143425761491 5.1180 5.1180 4.7270
