~Version
 VERS.                                 2.0: CWLS LOG ASCII STANDARD - VERSION 2.0
 WRAP.                                  NO: ONE LINE PER DEPTH STEP
 DLM.                                SPACE: DELIMITING CHARACTER(SPACE TAB OR COMMA)
~Well Information
 STRT.ft                               2.0: First reference value
 STOP.ft                           10791.0: Last reference value
 STEP.ft                               0.5: Step increment
 NULL.                             -999.25: Missing value
 WELL.                              PETRO1: Well name
 UWI.                           4200000000: Unique Well ID
 API.                           4200000000: API Number
 LONG.                   -103.663049999873: Longitude
 LATI.                    31.5180500000053: Latitude
~Curve Information
 MD.ft                                    : Measured Depth
 BH_CALI.unitless                     : Bad Hole Caliper = 3in Delta 3ft Window
 BH_DRHO.unitless                     : Bad Hole Density Correction = -0.1>DRHO or DRHO>0.10
 CALI.in                              : Caliper
 DPHI_UNK.v/v                         : Density Porosity Unknown
 DRHO.g/cm3                           : Bulk Density Correction
 GR.gAPI                              : Gamma Ray
 NPHI.v/v                             : Neutron Porosity
 NPHI_UNK.v/v                         : Neutron Porosity Unknown
 RDEEP.ohm.m                          : Deep Resistivity
 RDEEP_LAT.ohm.m                      : Deep Laterolog Resistivity
 RDEEP_LOG_10.unitless                : Deep Resistivity = Log10(RDEEP)
 RSHAL.ohm.m                          : Shallow Resistivity
 RSHAL_LAT.ohm.m                      : Shallow Laterolog Resistivity
 RXO.ohm.m                            : Micro Resistivity
~Ascii Data Section
# ...
10056.50 0 0 8.5480 0.0140 0.0240 75.9460 0.0480 0.0480 1379.2450 1379.2450 3.13964141824055 1981.6639 1981.6639 576.8060
10057.00 0 0 8.5550 0.0240 0.0210 88.6920 0.0820 0.0820 276.0770 276.0770 2.44103022703349 707.4960 707.4960 177.4320
10057.50 0 0 8.5610 0.0350 0.0160 112.7500 0.1160 0.1160 69.8970 69.8970 1.84445853609754 31.4070 31.4070 28.7350
10058.00 0 0 8.5680 0.0430 0.0100 121.3370 0.1500 0.1500 51.6440 51.6440 1.71301987245284 29.7190 29.7190 27.0180
10058.50 0 0 8.5710 0.0470 0.0150 131.2650 0.1840 0.1840 36.3940 36.3940 1.56102979074587 28.1210 28.1210 25.6470
10059.00 0 0 8.5700 0.0490 0.0130 136.0920 0.1990 0.1990 35.0780 35.0780 1.54503482375543 27.1040 27.1040 25.6470
10059.50 0 0 8.5710 0.0500 0.0110 142.6200 0.2090 0.2090 32.4130 32.4130 1.51071922921639 26.6090 26.6090 25.6470
10060.00 0 0 8.5730 0.0510 0.0070 149.5610 0.2190 0.2190 26.2200 26.2200 1.41863268735407 23.3720 23.3720 24.7190
10060.50 0 0 8.6120 0.0500 0.0010 152.2000 0.2200 0.2200 20.0260 20.0260 1.30159421182936 19.4720 19.4720 12.6560
10061.00 0 0 8.6540 0.0470 -0.0010 149.3450 0.2130 0.2130 14.2240 14.2240 1.15302174362614 15.5720 15.5720 2.5180
10061.50 0 0 8.6960 0.0440 0.0000 137.6090 0.1940 0.1940 13.4600 13.4600 1.12904505988796 12.5030 12.5030 16.1820
10062.00 0 0 8.7370 0.0460 0.0030 127.4010 0.1730 0.1730 13.4600 13.4600 1.12904505988796 12.5030 12.5030 13.8370
10062.50 0 0 8.7650 0.0490 0.0060 118.2190 0.1540 0.1540 21.1540 21.1540 1.32539250001726 12.9730 12.9730 8.4920
10063.00 0 0 8.6600 0.0620 0.0110 107.8270 0.1240 0.1240 46.2670 46.2670 1.66527134031068 34.1610 34.1610 22.9630
10063.50 0 0 8.5670 0.0740 0.0160 103.9940 0.0960 0.0960 71.3790 71.3790 1.85357045931698 57.6730 57.6730 54.3950
10064.00 0 0 8.4580 0.0980 0.0180 105.7880 0.0850 0.0850 93.1170 93.1170 1.96902897563449 96.6120 96.6120 80.3580
10064.50 0 0 8.4550 0.1270 0.0100 111.4090 0.1030 0.1030 78.0450 78.0450 1.89234508495172 87.2070 87.2070 66.3360
10065.00 0 0 8.5250 0.1270 0.0090 124.6310 0.1420 0.1420 55.3110 55.3110 1.74281151040473 59.8580 59.8580 25.5570
10065.50 0 0 8.5960 0.1140 0.0240 128.4120 0.1820 0.1820 32.5780 32.5780 1.51292441896497 32.5090 32.5090 2.0560
10066.00 0 0 8.6510 0.0960 0.0590 133.6890 0.2260 0.2260 22.9630 22.9630 1.36102862581367 20.1850 20.1850 0.2470
10066.50 0 0 8.6320 0.0850 0.0450 129.8230 0.2540 0.2540 18.4090 18.4090 1.26503019772306 19.4550 19.4550 0.5880
10067.00 0 0 8.6100 0.0860 0.0240 119.1810 0.2540 0.2540 20.3890 20.3890 1.30939592586976 21.4200 21.4200 3.4440
10067.50 0 0 8.5870 0.0850 0.0040 106.3910 0.2080 0.2080 30.0220 30.0220 1.47743962061982 29.2220 29.2220 19.4550
10068.00 0 0 8.5640 0.0620 0.0180 93.0120 0.1330 0.1330 39.6550 39.6550 1.59829795421367 37.0240 37.0240 45.3970
10068.50 0 0 8.5410 0.0360 0.0450 74.7990 0.0540 0.0540 48.8690 48.8690 1.68903345220752 182.3060 182.3060 44.5690
10069.00 0 0 8.5240 0.0190 0.0560 54.8090 0.0240 0.0240 180.9380 180.9380 2.25752978552879 503.4620 503.4620 10.5930
10069.50 0 0 8.5150 0.0100 0.0430 39.0560 0.0150 0.0150 307.5040 307.5040 2.48785076943381 824.6190 824.6190 0.7890
10070.00 0 0 8.5050 0.0010 0.0330 29.1350 0.0070 0.0070 702.2380 702.2380 2.84648432661579 1145.7760 1145.7760 6.3640
10070.50 0 0 8.4940 -0.0040 0.0250 24.9940 -0.0020 -0.0020 1798.0360 1798.0360 3.25479838286152 1466.9330 1466.9330 96.9930
10071.00 0 0 8.4980 -0.0030 0.0180 23.4190 -0.0030 -0.0030 3053.1240 3053.1240 3.48474444315295 1788.0900 1788.0900 316.2050
10071.50 0 0 8.5170 0.0050 0.0110 21.6550 -0.0050 -0.0050 4679.1919 4679.1919 3.67017085656258 1945.4940 1945.4940 471.0100
10072.00 0 0 8.5360 0.0130 0.0040 21.2430 -0.0060 -0.0060 6305.2598 6305.2598 3.79970298581503 -999.25 -999.25 483.4580
10072.50 0 0 8.5530 0.0140 0.0000 20.5070 -0.0060 -0.0060 7603.7881 7603.7881 3.8810300055786 -999.25 -999.25 494.8460
10073.00 0 0 8.5680 0.0130 0.0000 20.1310 -0.0060 -0.0060 7465.0029 7465.0029 3.87302998077555 -999.25 -999.25 372.5850
10073.50 0 0 8.5420 0.0110 0.0010 19.0780 -0.0050 -0.0050 7063.6631 7063.6631 3.84902997747493 -999.25 -999.25 164.8280
10074.00 0 0 8.5160 0.0100 0.0010 21.7370 -0.0050 -0.0050 5618.6538 5618.6538 3.74963227335106 -999.25 -999.25 167.8920
10074.50 0 0 8.4880 0.0080 0.0050 28.7890 -0.0050 -0.0050 3902.3181 3902.3181 3.59132266829886 -999.25 -999.25 350.7760
10075.00 0 0 8.4590 0.0030 0.0130 32.7470 -0.0040 -0.0040 2760.7690 2760.7690 3.44103006972427 -999.25 -999.25 310.8320
10075.50 0 0 8.4550 -0.0030 0.0200 32.0940 -0.0040 -0.0040 2612.3420 2612.3420 3.41703003285951 -999.25 -999.25 190.9990
10076.00 0 0 8.4690 0.0010 0.0220 31.4370 -0.0040 -0.0040 3399.3311 3399.3311 3.53139346758389 -999.25 -999.25 453.9730
10076.50 0 0 8.4830 0.0130 0.0150 30.5630 -0.0030 -0.0030 5277.7109 5277.7109 3.72244559695386 -999.25 -999.25 393.3020
10077.00 0 0 8.4840 0.0260 0.0080 30.4340 -0.0030 -0.0030 6561.9058 6561.9058 3.8170299915432 -999.25 -999.25 168.6650
10077.50 0 0 8.4620 0.0340 0.0010 30.9240 -0.0030 -0.0030 6299.5630 6299.5630 3.79931042353752 -999.25 -999.25 1.7420
10078.00 0 0 8.4430 0.0310 -0.0040 29.9300 -0.0030 -0.0030 5278.4458 5278.4458 3.72250606650245 -999.25 -999.25 206.5840
10078.50 0 0 8.4230 0.0220 -0.0010 26.5490 -0.0040 -0.0040 4140.2832 4140.2832 3.61703004836505 -999.25 -999.25 449.3600
10079.00 0 0 8.4030 0.0070 0.0080 23.3140 -0.0050 -0.0050 4064.7141 4064.7141 3.60903000401152 -999.25 -999.25 680.8160
10079.50 0 0 8.3820 -0.0170 0.0160 20.3790 -0.0050 -0.0050 4432.8159 4432.8159 3.64667969491892 -999.25 -999.25 732.8750
10080.00 0 0 8.3740 -0.0100 0.0210 19.7380 -0.0040 -0.0040 5642.2920 5642.2920 3.75145555801701 -999.25 -999.25 732.8750
10080.50 0 0 8.3920 -0.0010 0.0170 20.3540 -0.0040 -0.0040 6851.7690 6851.7690 3.83580271277035 -999.25 -999.25 643.5020
10081.00 0 0 8.4100 0.0090 0.0110 20.9320 -0.0030 -0.0030 7889.1460 7889.1460 3.89702999337912 -999.25 -999.25 519.9420
10081.50 0 0 8.4280 0.0070 0.0040 21.3860 -0.0030 -0.0030 7889.1460 7889.1460 3.89702999337912 -999.25 -999.25 462.4130
10082.00 0 0 8.4480 0.0020 0.0000 22.3030 -0.0030 -0.0030 6837.0659 6837.0659 3.83486976592731 -999.25 -999.25 680.8160
10082.50 0 0 8.4530 -0.0020 0.0000 22.8250 -0.0030 -0.0030 4962.5850 4962.5850 3.69570795850464 -999.25 -999.25 601.6360
10083.00 0 0 8.4580 -0.0070 0.0060 23.8110 -0.0030 -0.0030 3443.7371 3443.7371 3.53702998936194 -999.25 -999.25 390.7660
10083.50 0 0 8.4620 -0.0070 0.0130 24.6820 -0.0020 -0.0020 2916.5090 2916.5090 3.46486332094924 -999.25 -999.25 180.7300
10084.00 0 0 8.4660 -0.0050 0.0110 25.5830 -0.0020 -0.0020 2373.0801 2373.0801 3.37531239746761 -999.25 -999.25 644.2140
10084.50 0 0 8.4700 0.0130 0.0040 26.6290 -0.0020 -0.0020 1843.6890 1843.6890 3.26568766456202 -999.25 -999.25 493.9300
10085.00 0 0 8.4750 0.0200 0.0000 26.1110 -0.0020 -0.0020 1517.4480 1517.4480 3.18111381757267 1551.0310 1551.0310 271.0380
10085.50 0 0 8.4790 0.0200 0.0020 24.2670 -0.0030 -0.0030 1079.0210 1079.0210 3.03302989704192 1119.5150 1119.5150 276.0770
10086.00 0 0 8.4830 0.0180 0.0110 22.8030 -0.0030 -0.0030 1172.9480 1172.9480 3.06927875907747 1079.0210 1079.0210 897.4910
10086.50 0 0 8.4880 -0.0040 0.0350 21.7730 -0.0040 -0.0040 1648.2760 1648.2760 3.2170299350558 1741.9270 1741.9270 598.4530
10087.00 0 0 8.4860 -0.0090 0.0300 21.1380 -0.0030 -0.0030 1545.4910 1545.4910 3.18906648033966 1674.6780 1674.6780 603.8430
10087.50 0 0 8.4760 -0.0120 0.0250 19.1930 -0.0020 -0.0020 1394.3020 1394.3020 3.14435685032475 1550.0930 1550.0930 620.9120
10088.00 0 0 8.4670 -0.0080 0.0180 17.3770 0.0000 0.0000 1243.1121 1243.1121 3.09451029373919 1425.5090 1425.5090 225.4390
10088.50 0 0 8.4580 -0.0040 0.0120 17.1220 0.0010 0.0010 1091.9230 1091.9230 3.03819201396015 1300.9240 1300.9240 362.5880
10089.00 0 0 8.4490 0.0010 0.0060 18.6780 0.0010 0.0010 931.1720 931.1720 2.96902990842661 1176.3390 1176.3390 644.2140
10089.50 0 0 8.4400 0.0060 0.0100 20.1490 0.0010 0.0010 881.1100 881.1100 2.9450301302178 1051.7540 1051.7540 668.3900
10090.00 0 0 8.4310 0.0060 0.0130 21.2190 0.0010 0.0010 833.7390 833.7390 2.92103011706456 927.1690 927.1690 532.7050
