~Version
 VERS.                                 2.0: CWLS LOG ASCII STANDARD - VERSION 2.0
 WRAP.                                  NO: ONE LINE PER DEPTH STEP
 DLM.                                SPACE: DELIMITING CHARACTER(SPACE TAB OR COMMA)
~Well Information
 STRT.ft                               2.0: First reference value
 STOP.ft                           10791.0: Last reference value
 STEP.ft                               0.5: Step increment
 NULL.                             -999.25: Missing value
 WELL.                              PETRO1: Well name
 UWI.                           4200000000: Unique Well ID
 API.                           4200000000: API Number
 LONG.                   -103.663049999873: Longitude
 LATI.                    31.5180500000053: Latitude
~Curve Information
 MD.ft                                    : Measured Depth
 BH_CALI.unitless                     : Bad Hole Caliper = 3in Delta 3ft Window
 BH_DRHO.unitless                     : Bad Hole Density Correction = -0.1>DRHO or DRHO>0.10
 CALI.in                              : Caliper
 DPHI_UNK.v/v                         : Density Porosity Unknown
 DRHO.g/cm3                           : Bulk Density Correction
 GR.gAPI                              : Gamma Ray
 NPHI.v/v                             : Neutron Porosity
 NPHI_UNK.v/v                         : Neutron Porosity Unknown
 RDEEP.ohm.m                          : Deep Resistivity
 RDEEP_LAT.ohm.m                      : Deep Laterolog Resistivity
 RDEEP_LOG_10.unitless                : Deep Resistivity = Log10(RDEEP)
 RSHAL.ohm.m                          : Shallow Resistivity
 RSHAL_LAT.ohm.m                      : Shallow Laterolog Resistivity
 RXO.ohm.m                            : Micro Resistivity
~Ascii Data Section
# ...
10751.00 0 0 8.1190 0.0350 0.0130 130.9520 0.2300 0.2300 14.7580 14.7580 1.16902750600893 15.7760 15.7760 16.1820
10751.50 0 0 8.1350 0.0360 0.0070 158.9400 0.2200 0.2200 15.0320 15.0320 1.17701676709247 17.0870 17.0870 15.8870
10752.00 0 0 8.1500 0.0380 0.0010 194.6310 0.2140 0.2140 17.7300 17.7300 1.24870873560092 19.8100 19.8100 35.4730
10752.50 0 0 8.1650 0.0520 -0.0030 201.2250 0.2240 0.2240 20.3070 20.3070 1.30764576881692 22.5320 22.5320 29.3230
10753.00 0 0 8.1630 0.0660 -0.0070 199.6890 0.2350 0.2350 21.7290 21.7290 1.33703973992038 23.3900 23.3900 22.5440
10753.50 0 0 8.1590 0.0720 -0.0080 193.8850 0.2450 0.2450 20.9430 20.9430 1.32103889272605 21.1470 21.1470 22.1320
10754.00 0 0 8.1540 0.0630 -0.0060 163.6810 0.2550 0.2550 17.3100 17.3100 1.23829706787539 18.7510 18.7510 21.7290
10754.50 0 0 8.1500 0.0520 -0.0040 133.6060 0.2670 0.2670 13.2140 13.2140 1.1210343024723 18.4090 18.4090 23.0080
10755.00 0 0 8.1460 0.0520 -0.0050 125.5080 0.2540 0.2540 14.1550 14.1550 1.15090987370112 21.1590 21.1590 24.3860
10755.50 0 0 8.1410 0.0530 -0.0050 126.3220 0.2280 0.2280 16.8120 16.8120 1.2256193813334 24.8360 24.8360 25.7630
10756.00 0 0 8.1370 0.0480 -0.0020 126.7830 0.2030 0.2030 19.4680 19.4680 1.28932133757147 25.6470 25.6470 26.6090
10756.50 0 0 8.1330 0.0380 0.0020 122.5920 0.1740 0.1740 22.1250 22.1250 1.34488327936986 25.4090 25.4090 25.1790
10757.00 0 0 8.1280 0.0330 0.0070 112.2690 0.1730 0.1730 24.7190 24.7190 1.39303089751442 25.1790 25.1790 24.7190
10757.50 0 0 8.1270 0.0320 0.0120 100.6430 0.1730 0.1730 25.1790 25.1790 1.40103847783277 25.1790 25.1790 27.6060
10758.00 0 0 8.1310 0.0300 0.0170 97.6910 0.1740 0.1740 25.1790 25.1790 1.40103847783277 25.1790 25.1790 30.2710
10758.50 0 0 8.1340 0.0220 0.0240 97.8260 0.1760 0.1760 25.1790 25.1790 1.40103847783277 25.1790 25.1790 24.2680
10759.00 0 0 8.1380 0.0170 0.0300 99.4660 0.1750 0.1750 25.1790 25.1790 1.40103847783277 25.1790 25.1790 27.1820
10759.50 0 0 8.1410 0.0150 0.0360 100.1220 0.1720 0.1720 24.7190 24.7190 1.39303089751442 24.4720 24.4720 27.0130
10760.00 0 0 8.1450 0.0170 0.0340 99.7840 0.1690 0.1690 23.5750 23.5750 1.37245170140937 23.4510 23.4510 25.0240
10760.50 0 0 8.1490 0.0200 0.0320 98.6630 0.1660 0.1660 22.2230 22.2230 1.34680268626552 22.4310 22.4310 23.0350
10761.00 0 0 8.1520 0.0230 0.0270 98.2650 0.1690 0.1690 20.8700 20.8700 1.31952244906545 21.4110 21.4110 21.0460
10761.50 0 0 8.1560 0.0290 0.0200 100.9160 0.1750 0.1750 19.5170 19.5170 1.29041306212293 20.3900 20.3900 20.1850
10762.00 0 0 8.1590 0.0360 0.0120 105.1650 0.1810 0.1810 18.4090 18.4090 1.26503019772306 19.3700 19.3700 19.8170
10762.50 0 0 8.1630 0.0420 0.0080 108.0210 0.1870 0.1870 18.5780 18.5780 1.26899895854267 18.7510 18.7510 19.9090
10763.00 0 0 8.1660 0.0410 0.0080 109.2440 0.1940 0.1940 18.7210 18.7210 1.27232904327402 18.9430 18.9430 20.0260
10763.50 0 0 8.1660 0.0390 0.0080 108.3210 0.1990 0.1990 18.8640 18.8640 1.27563378775101 19.1340 19.1340 20.1430
10764.00 0 0 8.1660 0.0390 0.0200 108.2890 0.2060 0.2060 19.0070 19.0070 1.27891357471596 19.3260 19.3260 20.5600
10764.50 0 0 8.1660 0.0390 0.0160 108.3130 0.2140 0.2140 19.1500 19.1500 1.28216877830464 19.5170 19.5170 20.5210
10765.00 0 0 8.1660 0.0390 0.0100 -999.25 0.2170 0.2170 19.2930 19.2930 1.28539976430243 19.7090 19.7090 20.4340
10765.50 0 0 8.1660 0.0350 0.0120 -999.25 0.2090 0.2090 19.4360 19.4360 1.28860689039097 19.9000 19.9000 20.3470
10766.00 0 0 8.1660 0.0310 0.0180 -999.25 0.2010 0.2010 19.5790 19.5790 1.29179050638578 20.0910 20.0910 20.2610
10766.50 0 0 8.1660 0.0270 0.0240 -999.25 0.1970 0.1970 19.7220 19.7220 1.29495095446527 20.2830 20.2830 20.1850
10767.00 0 0 8.1660 0.0340 0.0220 -999.25 0.1980 0.1980 19.8170 19.8170 1.29703790937936 20.4740 20.4740 25.1790
10767.50 0 0 8.1660 0.0400 0.0100 -999.25 0.1980 0.1980 19.4550 19.4550 1.28903123513976 20.5600 20.5600 20.1850
10768.00 0 0 8.1660 0.0430 0.0050 -999.25 0.1920 0.1920 19.2460 19.2460 1.2843404814581 20.3980 20.3980 20.9430
10768.50 0 0 8.1660 0.0360 0.0120 -999.25 0.1860 0.1860 19.1000 19.1000 1.28103336724773 19.9580 19.9580 20.5600
10769.00 0 0 8.1660 0.0370 0.0200 -999.25 0.1890 0.1890 18.9140 18.9140 1.27678338470027 19.5190 19.5190 20.5600
10769.50 0 0 8.1660 0.0480 0.0090 -999.25 0.1940 0.1940 18.4510 18.4510 1.2660199088535 19.0800 19.0800 20.4020
10770.00 0 0 8.1670 0.0620 -0.0040 -999.25 0.1990 0.1990 17.9870 17.9870 1.25495873465785 18.6410 18.6410 20.2440
10770.50 0 0 8.1600 0.0610 -0.0070 -999.25 0.2050 0.2050 17.5240 17.5240 1.24363324450614 18.2010 18.2010 20.0870
10771.00 0 0 8.1420 0.0590 -0.0060 -999.25 0.2060 0.2060 17.0610 17.0610 1.23200448297183 17.7620 17.7620 19.9290
10771.50 0 0 8.1260 0.0580 -0.0010 -999.25 0.2050 0.2050 16.5980 16.5980 1.22005576025134 17.3230 17.3230 19.8170
10772.00 0 0 8.1090 0.0580 0.0020 -999.25 0.2060 0.2060 15.9000 15.9000 1.20139712432045 17.1010 17.1010 20.5640
10772.50 0 0 8.0920 0.0460 0.0230 -999.25 0.2120 0.2120 15.9310 15.9310 1.20224303762481 16.7890 16.7890 21.4050
10773.00 0 0 8.0820 0.0320 0.0500 -999.25 0.2150 0.2150 15.9930 15.9930 1.20392993724463 16.4830 16.4830 22.1320
10773.50 0 0 8.0780 0.0180 0.0670 -999.25 0.2170 0.2170 16.0560 16.0560 1.20563735947943 16.4830 16.4830 20.8610
10774.00 0 0 8.0740 0.0370 0.0480 -999.25 0.2180 0.2180 16.1180 16.1180 1.20731115143613 -999.25 -999.25 19.1420
10774.50 0 0 8.0700 0.0660 0.0230 -999.25 0.2200 0.2200 16.1820 16.1820 1.20903219683653 -999.25 -999.25 17.7430
10775.00 0 0 8.0660 0.0860 -0.0040 -999.25 0.2200 0.2200 -999.25 -999.25 -999.25 -999.25 -999.25 17.7430
10775.50 0 0 8.0610 0.1000 -0.0100 -999.25 -999.25 -999.25 -999.25 -999.25 -999.25 -999.25 -999.25 21.3320
10776.00 0 0 8.0570 0.1060 -0.0100 -999.25 -999.25 -999.25 -999.25 -999.25 -999.25 -999.25 -999.25 20.6770
10776.50 0 0 8.0530 0.0940 -0.0080 -999.25 -999.25 -999.25 -999.25 -999.25 -999.25 -999.25 -999.25 19.5170
10777.00 0 0 8.0490 0.0780 -0.0010 -999.25 -999.25 -999.25 -999.25 -999.25 -999.25 -999.25 -999.25 18.3560
10777.50 0 0 8.0450 0.0620 0.0070 -999.25 -999.25 -999.25 -999.25 -999.25 -999.25 -999.25 -999.25 17.7430
10778.00 0 0 8.0480 0.0470 0.0160 -999.25 -999.25 -999.25 -999.25 -999.25 -999.25 -999.25 -999.25 17.2680
10778.50 0 0 8.0510 0.0440 0.0180 -999.25 -999.25 -999.25 -999.25 -999.25 -999.25 -999.25 -999.25 16.8270
10779.00 0 0 8.0550 0.0460 0.0200 -999.25 -999.25 -999.25 -999.25 -999.25 -999.25 -999.25 -999.25 16.3870
10779.50 0 0 8.0580 0.0430 0.0240 -999.25 -999.25 -999.25 -999.25 -999.25 -999.25 -999.25 -999.25 15.8870
10780.00 0 0 8.0610 0.0430 0.0290 -999.25 -999.25 -999.25 -999.25 -999.25 -999.25 -999.25 -999.25 15.8750
10780.50 0 0 8.0650 0.0470 0.0270 -999.25 -999.25 -999.25 -999.25 -999.25 -999.25 -999.25 -999.25 15.8430
10781.00 0 0 8.0680 0.0470 0.0240 -999.25 -999.25 -999.25 -999.25 -999.25 -999.25 -999.25 -999.25 15.8110
10781.50 0 0 8.0720 0.0400 0.0270 -999.25 -999.25 -999.25 -999.25 -999.25 -999.25 -999.25 -999.25 15.7790
10782.00 0 0 8.0750 0.0310 0.0330 -999.25 -999.25 -999.25 -999.25 -999.25 -999.25 -999.25 -999.25 15.7470
10782.50 0 0 8.0790 0.0340 0.0310 -999.25 -999.25 -999.25 -999.25 -999.25 -999.25 -999.25 -999.25 15.7150
10783.00 0 0 8.0810 0.0440 0.0250 -999.25 -999.25 -999.25 -999.25 -999.25 -999.25 -999.25 -999.25 15.6830
10783.50 0 0 8.0840 0.0560 0.0200 -999.25 -999.25 -999.25 -999.25 -999.25 -999.25 -999.25 -999.25 15.6510
10784.00 0 0 8.0590 0.0560 0.0150 -999.25 -999.25 -999.25 -999.25 -999.25 -999.25 -999.25 -999.25 15.6030
10784.50 0 0 8.0350 0.0570 0.0080 -999.25 -999.25 -999.25 -999.25 -999.25 -999.25 -999.25 -999.25 22.9630
10785.00 0 0 7.9960 0.0580 0.0060 -999.25 -999.25 -999.25 -999.25 -999.25 -999.25 -999.25 -999.25 22.5440
10785.50 0 0 7.9500 0.0600 0.0050 -999.25 -999.25 -999.25 -999.25 -999.25 -999.25 -999.25 -999.25 20.9030
10786.00 0 0 7.9060 0.0590 0.0050 -999.25 -999.25 -999.25 -999.25 -999.25 -999.25 -999.25 -999.25 18.6390
10786.50 0 0 7.8590 0.0560 0.0110 -999.25 -999.25 -999.25 -999.25 -999.25 -999.25 -999.25 -999.25 16.3740
