~Version
 VERS.                                 2.0: CWLS LOG ASCII STANDARD - VERSION 2.0
 WRAP.                                  NO: ONE LINE PER DEPTH STEP
 DLM.                                SPACE: DELIMITING CHARACTER(SPACE TAB OR COMMA)
~Well Information
 STRT.ft                               2.0: First reference value
 STOP.ft                           10791.0: Last reference value
 STEP.ft                               0.5: Step increment
 NULL.                             -999.25: Missing value
 WELL.                              PETRO1: Well name
 UWI.                           4200000000: Unique Well ID
 API.                           4200000000: API Number
 LONG.                   -103.663049999873: Longitude
 LATI.                    31.5180500000053: Latitude
~Curve Information
 MD.ft                                    : Measured Depth
 BH_CALI.unitless                     : Bad Hole Caliper = 3in Delta 3ft Window
 BH_DRHO.unitless                     : Bad Hole Density Correction = -0.1>DRHO or DRHO>0.10
 CALI.in                              : Caliper
 DPHI_UNK.v/v                         : Density Porosity Unknown
 DRHO.g/cm3                           : Bulk Density Correction
 GR.gAPI                              : Gamma Ray
 NPHI.v/v                             : Neutron Porosity
 NPHI_UNK.v/v                         : Neutron Porosity Unknown
 RDEEP.ohm.m                          : Deep Resistivity
 RDEEP_LAT.ohm.m                      : Deep Laterolog Resistivity
 RDEEP_LOG_10.unitless                : Deep Resistivity = Log10(RDEEP)
 RSHAL.ohm.m                          : Shallow Resistivity
 RSHAL_LAT.ohm.m                      : Shallow Laterolog Resistivity
 RXO.ohm.m                            : Micro Resistivity
~Ascii Data Section
# ...
6620.00 0 0 8.7470 0.1410 0.0180 89.2490 0.1390 0.1390 18.9470 18.9470 1.27754045511743 13.2940 13.2940 12.5250
6620.50 0 0 8.7410 0.1520 0.0090 87.6430 0.1510 0.1510 17.4660 17.4660 1.24219345582245 12.9730 12.9730 9.7790
6621.00 0 0 8.7360 0.1530 0.0000 83.9000 0.1500 0.1500 15.9850 15.9850 1.20371264060771 12.9730 12.9730 8.3370
6621.50 0 0 8.7300 0.1520 0.0000 80.4940 0.1270 0.1270 15.0320 15.0320 1.17701676709247 12.9730 12.9730 7.8890
6622.00 0 0 8.7250 0.1520 0.0010 76.9960 0.1130 0.1130 15.0320 15.0320 1.17701676709247 13.1920 13.1920 11.1950
6622.50 0 0 8.7200 0.1410 0.0020 73.3740 0.0970 0.0970 15.3050 15.3050 1.18483333393335 13.4240 13.4240 10.9840
6623.00 0 0 8.7140 0.1310 0.0010 70.2170 0.0950 0.0950 15.5420 15.5420 1.19150690462415 13.6560 13.6560 10.3940
6623.50 0 0 8.7080 0.1270 0.0000 67.4250 0.0940 0.0940 15.5970 15.5970 1.19304107215324 13.7100 13.7100 9.8410
6624.00 0 0 8.7040 0.1300 -0.0010 64.7990 0.0960 0.0960 15.5970 15.5970 1.19304107215324 13.7100 13.7100 10.0260
6624.50 0 0 8.6970 0.1320 -0.0040 61.5130 0.0980 0.0980 15.5570 15.5570 1.19192585171144 13.6550 13.6550 10.2160
6625.00 0 0 8.6910 0.1320 -0.0060 60.3380 0.1000 0.1000 15.4540 15.4540 1.18904090790901 13.5850 13.5850 10.4050
6625.50 0 0 8.6550 0.1260 -0.0060 62.2640 0.1010 0.1010 15.3520 15.3520 1.18616496172742 13.5150 13.5150 10.5930
6626.00 0 0 8.6190 0.1270 -0.0040 66.1460 0.1020 0.1020 15.3120 15.3120 1.18503192043277 13.4600 13.4600 10.1200
6626.50 0 0 8.5820 0.1300 -0.0020 72.3250 0.1130 0.1130 15.3120 15.3120 1.18503192043277 13.7100 13.7100 9.6610
6627.00 0 0 8.5460 0.1310 0.0070 79.4150 0.1300 0.1300 15.8540 15.8540 1.20013885385738 13.9970 13.9970 15.5970
6627.50 0 0 8.5090 0.1280 0.0150 86.4860 0.1470 0.1470 16.7890 16.7890 1.22502482910913 15.2420 15.2420 15.8870
6628.00 0 0 8.4730 0.1250 0.0240 95.7880 0.1640 0.1640 37.7330 37.7330 1.57672133559195 17.1010 17.1010 15.4960
6628.50 0 0 8.4350 0.1260 0.0190 94.9400 0.1780 0.1780 69.3320 69.3320 1.84093372834583 18.7510 18.7510 47.9230
6629.00 0 0 8.3990 0.1220 0.0100 88.8150 0.1790 0.1790 100.9320 100.9320 2.00402887902316 44.7040 44.7040 74.0940
6629.50 0 0 8.3700 0.1140 0.0000 69.7860 0.1760 0.1760 132.5310 132.5310 2.12231747490869 81.9260 81.9260 100.2660
6630.00 0 0 8.3800 0.0730 -0.0030 50.1190 0.0940 0.0940 167.8920 167.8920 2.22503000263817 119.1470 119.1470 126.4380
6630.50 0 0 8.3880 0.0380 0.0030 32.5320 0.0790 0.0790 303.3950 303.3950 2.48200841926448 153.1190 153.1190 150.3250
6631.00 0 0 8.3980 0.0060 0.0070 25.4180 0.0640 0.0640 457.2090 457.2090 2.66011477074307 132.1390 132.1390 93.1170
6631.50 0 0 8.4070 0.0130 0.0090 20.1950 0.0520 0.0520 668.3900 668.3900 2.82502994364908 190.2580 190.2580 143.0980
6632.00 0 0 8.4160 0.0240 0.0040 21.2770 0.0520 0.0520 656.1910 656.1910 2.81703026951674 255.0630 255.0630 251.7850
6632.50 0 0 8.4250 0.0350 0.0020 25.7050 0.0540 0.0540 418.4210 418.4210 2.6216134730754 302.7120 302.7120 239.3840
6633.00 0 0 8.4340 0.0470 0.0030 30.4940 0.0630 0.0630 242.6780 242.6780 2.38503040710379 268.7830 268.7830 215.3450
6633.50 0 0 8.4440 0.0580 0.0060 35.5280 0.0710 0.0710 188.4170 188.4170 2.27512008461989 229.4550 229.4550 194.5490
6634.00 0 0 8.4500 0.0610 0.0130 38.5620 0.0800 0.0800 129.9820 129.9820 2.11388321506128 190.1260 190.1260 129.2320
6634.50 0 0 8.4500 0.0580 0.0200 39.3310 0.0790 0.0790 77.4520 77.4520 1.88903263678534 150.7970 150.7970 80.3580
6635.00 0 0 8.4490 0.0600 0.0330 41.1770 0.0700 0.0700 78.8910 78.8910 1.89702746108926 109.9080 109.9080 190.8480
6635.50 0 0 8.4500 0.0660 0.0460 43.7550 0.0580 0.0580 98.4080 98.4080 1.99303040549058 105.9330 105.9330 496.0370
6636.00 0 0 8.4530 0.0950 0.0450 68.6960 0.0560 0.0560 76.7060 76.7060 1.88482933611295 81.7080 81.7080 354.2510
6636.50 0 0 8.5340 0.1050 0.0380 84.3610 0.0710 0.0710 46.1300 46.1300 1.66398345460827 41.7530 41.7530 78.8350
6637.00 0 0 8.6260 0.1210 0.0160 94.3130 0.1000 0.1000 15.3120 15.3120 1.18503192043277 22.7270 22.7270 10.0240
6637.50 0 0 8.7210 0.1360 -0.0040 103.6460 0.1290 0.1290 14.4890 14.4890 1.16103841242296 11.9410 11.9410 11.1950
6638.00 0 0 8.8130 0.1460 -0.0150 106.1740 0.1380 0.1380 10.7900 10.7900 1.03302144468291 10.2250 10.2250 9.8930
6638.50 0 0 8.9040 0.1480 -0.0130 102.3910 0.1400 0.1400 10.4000 10.4000 1.01703333929878 8.6500 8.6500 8.2700
6639.00 0 0 8.9650 0.1460 -0.0100 100.8320 0.1420 0.1420 10.5930 10.5930 1.02501897228276 9.6530 9.6530 7.1950
6639.50 0 0 9.0110 0.1470 -0.0070 104.1950 0.1530 0.1530 11.2580 11.2580 1.05146124432418 11.4030 11.4030 10.5930
6640.00 0 0 9.0560 0.1490 -0.0040 107.3790 0.1680 0.1680 12.2750 12.2750 1.08902150079501 10.8760 10.8760 10.4000
6640.50 0 0 9.1010 0.1470 -0.0010 103.6810 0.1690 0.1690 11.2480 11.2480 1.05107530767575 10.2440 10.2440 9.8530
6641.00 0 0 9.1450 0.1410 -0.0010 94.8300 0.1550 0.1550 10.3410 10.3410 1.01456253812761 9.6110 9.6110 9.0010
6641.50 0 0 9.1900 0.1360 -0.0020 90.7510 0.1400 0.1400 9.3120 9.3120 0.969042967305813 8.9790 8.9790 8.1500
6642.00 0 0 9.2360 0.1360 -0.0030 88.0140 0.1420 0.1420 8.9750 8.9750 0.953034457250357 8.3460 8.3460 7.2990
6642.50 0 0 9.2730 0.1400 -0.0060 88.0970 0.1470 0.1470 8.9750 8.9750 0.953034457250357 7.8890 7.8890 6.5620
6643.00 0 0 9.3000 0.1450 -0.0090 91.5580 0.1570 0.1570 9.7960 9.7960 0.991048776452676 8.8730 8.8730 7.1020
6643.50 0 0 9.3290 0.1490 -0.0110 96.8650 0.1660 0.1660 10.7290 10.7290 1.03055924529116 9.9890 9.9890 8.2180
6644.00 0 0 9.3570 0.1510 -0.0100 101.5470 0.1730 0.1730 11.1950 11.1950 1.04902409791505 10.9910 10.9910 9.4850
6644.50 0 0 9.3860 0.1540 -0.0090 101.7110 0.1730 0.1730 10.5060 10.5060 1.02143739646709 10.2510 10.2510 9.1850
6645.00 0 0 9.4140 0.1530 -0.0080 101.4160 0.1600 0.1600 9.5300 9.5300 0.979092900638326 9.1460 9.1460 8.2180
6645.50 0 0 9.4420 0.1510 -0.0030 96.9780 0.1470 0.1470 8.5540 8.5540 0.932169245920792 8.0400 8.0400 7.2500
6646.00 0 0 9.4710 0.1510 -0.0010 91.3340 0.1330 0.1330 7.5780 7.5780 0.879554600938974 6.9350 6.9350 6.2820
6646.50 0 0 9.4990 0.1510 -0.0030 86.9880 0.1200 0.1200 6.6840 6.6840 0.825036441221354 5.7680 5.7680 5.2610
6647.00 0 0 9.5270 0.1510 -0.0040 83.4140 0.1200 0.1200 6.5620 6.5620 0.817036226050029 5.5590 5.5590 5.2610
6647.50 0 0 9.5560 0.1460 -0.0030 79.6390 0.1200 0.1200 6.4420 6.4420 0.809020720483672 5.3000 5.3000 5.1780
6648.00 0 0 9.5840 0.1400 0.0020 75.8520 0.1190 0.1190 6.4420 6.4420 0.809020720483672 5.1650 5.1650 4.9470
6648.50 0 0 9.6130 0.1290 0.0110 72.1270 0.1170 0.1170 6.5620 6.5620 0.817036226050029 5.0700 5.0700 4.7100
6649.00 0 0 9.6290 0.1220 0.0170 69.8600 0.1150 0.1150 6.9580 6.9580 0.84248442441157 5.2650 5.2650 4.7980
6649.50 0 0 9.6380 0.1190 0.0180 69.4310 0.1150 0.1150 7.3630 7.3630 0.867054800476702 5.6000 5.6000 5.1860
6650.00 0 0 9.6470 0.1180 0.0160 68.3660 0.1140 0.1140 7.7680 7.7680 0.890309216899948 5.9360 5.9360 5.6800
6650.50 0 0 9.6570 0.1150 0.0130 67.7060 0.1030 0.1030 8.1740 8.1740 0.912434633375575 6.2720 6.2720 6.1740
6651.00 0 0 9.6650 0.1050 0.0160 68.5230 0.0940 0.0940 8.4920 8.4920 0.929009985493961 6.6070 6.6070 6.6840
6651.50 0 0 9.6860 0.0960 0.0240 70.6560 0.0900 0.0900 8.4920 8.4920 0.929009985493961 6.9350 6.9350 6.5620
6652.00 0 0 9.7040 0.0880 0.0300 73.5470 0.0900 0.0900 8.2220 8.2220 0.914977472444331 6.7100 6.7100 6.0310
6652.50 0 0 9.7220 0.0900 0.0310 76.2510 0.0930 0.0930 7.7900 7.7900 0.891537457672564 6.2850 6.2850 5.5130
6653.00 0 0 9.7400 0.1050 0.0270 75.3020 0.0970 0.0970 7.3290 7.3290 0.865044721693099 5.8600 5.8600 4.9940
6653.50 0 0 9.7590 0.1200 0.0230 73.9430 0.1000 0.1000 7.1950 7.1950 0.857030798272624 5.2610 5.2610 4.6240
6654.00 0 0 9.7770 0.1230 0.0200 72.3100 0.1030 0.1030 7.4260 7.4260 0.87075494489014 5.4010 5.4010 5.0310
6654.50 0 0 9.7950 0.1150 0.0200 70.9560 0.1070 0.1070 7.7960 7.7960 0.891871830445584 5.9370 5.9370 5.6490
6655.00 0 0 9.8150 0.1040 0.0250 68.9820 0.1100 0.1100 8.1660 8.1660 0.912009375586978 6.4420 6.4420 6.2090
6655.50 0 0 9.8290 0.0970 0.0320 66.2700 0.1090 0.1090 8.5360 8.5360 0.931254406416414 6.4420 6.4420 6.2090
