~Version
 VERS.                                 2.0: CWLS LOG ASCII STANDARD - VERSION 2.0
 WRAP.                                  NO: ONE LINE PER DEPTH STEP
 DLM.                                SPACE: DELIMITING CHARACTER(SPACE TAB OR COMMA)
~Well Information
 STRT.ft                               2.0: First reference value
 STOP.ft                           10791.0: Last reference value
 STEP.ft                               0.5: Step increment
 NULL.                             -999.25: Missing value
 WELL.                              PETRO1: Well name
 UWI.                           4200000000: Unique Well ID
 API.                           4200000000: API Number
 LONG.                   -103.663049999873: Longitude
 LATI.                    31.5180500000053: Latitude
~Curve Information
 MD.ft                                    : Measured Depth
 BH_CALI.unitless                     : Bad Hole Caliper = 3in Delta 3ft Window
 BH_DRHO.unitless                     : Bad Hole Density Correction = -0.1>DRHO or DRHO>0.10
 CALI.in                              : Caliper
 DPHI_UNK.v/v                         : Density Porosity Unknown
 DRHO.g/cm3                           : Bulk Density Correction
 GR.gAPI                              : Gamma Ray
 NPHI.v/v                             : Neutron Porosity
 NPHI_UNK.v/v                         : Neutron Porosity Unknown
 RDEEP.ohm.m                          : Deep Resistivity
 RDEEP_LAT.ohm.m                      : Deep Laterolog Resistivity
 RDEEP_LOG_10.unitless                : Deep Resistivity = Log10(RDEEP)
 RSHAL.ohm.m                          : Shallow Resistivity
 RSHAL_LAT.ohm.m                      : Shallow Laterolog Resistivity
 RXO.ohm.m                            : Micro Resistivity
~Ascii Data Section
# ...
418.50 1 0 13.3560 0.0390 -0.0100 5.0520 0.1420 0.1420 -999.25 -999.25 -999.25 -999.25 -999.25 -999.25
419.00 0 0 13.3050 -0.1050 -0.0010 4.8410 0.0370 0.0370 -999.25 -999.25 -999.25 -999.25 -999.25 -999.25
419.50 0 0 13.2500 -0.1350 0.0300 4.6160 -0.0020 -0.0020 -999.25 -999.25 -999.25 -999.25 -999.25 -999.25
420.00 0 0 13.2420 -0.1650 0.0370 4.3940 -0.0050 -0.0050 -999.25 -999.25 -999.25 -999.25 -999.25 -999.25
420.50 0 0 13.2090 -0.1770 0.0440 4.1830 -0.0070 -0.0070 -999.25 -999.25 -999.25 -999.25 -999.25 -999.25
421.00 0 0 13.1830 -0.1770 0.0440 3.9160 -0.0100 -0.0100 -999.25 -999.25 -999.25 -999.25 -999.25 -999.25
421.50 0 0 13.1580 -0.1660 0.0360 4.0990 -0.0110 -0.0110 -999.25 -999.25 -999.25 -999.25 -999.25 -999.25
422.00 0 0 13.1300 -0.1570 0.0180 4.8280 -0.0110 -0.0110 -999.25 -999.25 -999.25 -999.25 -999.25 -999.25
422.50 0 0 13.1160 -0.1500 0.0110 5.4500 -0.0110 -0.0110 -999.25 -999.25 -999.25 -999.25 -999.25 -999.25
423.00 0 0 13.1170 -0.1530 0.0180 6.1830 -0.0090 -0.0090 -999.25 -999.25 -999.25 -999.25 -999.25 -999.25
423.50 0 0 13.1170 -0.1560 0.0250 6.0390 -0.0070 -0.0070 -999.25 -999.25 -999.25 -999.25 -999.25 -999.25
424.00 0 0 13.1170 -0.1530 0.0320 5.8070 -0.0050 -0.0050 -999.25 -999.25 -999.25 -999.25 -999.25 -999.25
424.50 0 0 13.1170 -0.1500 0.0300 5.5260 -0.0070 -0.0070 -999.25 -999.25 -999.25 -999.25 -999.25 -999.25
425.00 0 0 13.1170 -0.1530 0.0220 5.4780 -0.0090 -0.0090 -999.25 -999.25 -999.25 -999.25 -999.25 -999.25
425.50 0 0 13.1170 -0.1550 0.0120 5.5610 -0.0110 -0.0110 -999.25 -999.25 -999.25 -999.25 -999.25 -999.25
426.00 0 0 13.1170 -0.1560 0.0020 5.6270 -0.0080 -0.0080 -999.25 -999.25 -999.25 -999.25 -999.25 -999.25
426.50 0 0 13.1170 -0.1500 0.0030 5.7070 -0.0040 -0.0040 -999.25 -999.25 -999.25 -999.25 -999.25 -999.25
427.00 0 0 13.1170 -0.1180 0.0100 5.7650 0.0090 0.0090 -999.25 -999.25 -999.25 -999.25 -999.25 -999.25
427.50 0 0 13.1170 -0.1000 0.0170 5.8210 0.0200 0.0200 -999.25 -999.25 -999.25 -999.25 -999.25 -999.25
428.00 0 0 13.1170 -0.1010 0.0220 5.2830 0.0320 0.0320 -999.25 -999.25 -999.25 -999.25 -999.25 -999.25
428.50 0 0 13.1170 -0.1020 0.0200 4.7430 0.0330 0.0330 -999.25 -999.25 -999.25 -999.25 -999.25 -999.25
429.00 0 0 13.1170 -0.1330 0.0180 4.2610 0.0230 0.0230 -999.25 -999.25 -999.25 -999.25 -999.25 -999.25
429.50 0 0 13.1170 -0.1380 0.0260 4.6180 0.0260 0.0260 -999.25 -999.25 -999.25 -999.25 -999.25 -999.25
430.00 0 0 13.1170 -0.1430 0.0340 4.2140 0.0310 0.0310 -999.25 -999.25 -999.25 -999.25 -999.25 -999.25
430.50 0 0 13.1170 -0.1460 0.0420 3.8270 0.0330 0.0330 -999.25 -999.25 -999.25 -999.25 -999.25 -999.25
431.00 0 0 13.1170 -0.1520 0.0510 3.4780 0.0270 0.0270 -999.25 -999.25 -999.25 -999.25 -999.25 -999.25
431.50 0 0 13.1170 -0.1450 0.0560 3.9860 0.0200 0.0200 -999.25 -999.25 -999.25 -999.25 -999.25 -999.25
432.00 0 0 13.1170 -0.1310 0.0370 4.4800 0.0190 0.0190 -999.25 -999.25 -999.25 -999.25 -999.25 -999.25
432.50 0 0 13.1170 -0.1170 0.0100 4.9830 0.0200 0.0200 -999.25 -999.25 -999.25 -999.25 -999.25 -999.25
433.00 0 0 13.1170 -0.1130 0.0050 5.3530 0.0150 0.0150 -999.25 -999.25 -999.25 -999.25 -999.25 -999.25
433.50 0 0 13.1170 -0.1240 0.0000 4.5760 0.0070 0.0070 -999.25 -999.25 -999.25 -999.25 -999.25 -999.25
434.00 0 0 13.1170 -0.1340 0.0000 3.9190 -0.0010 -0.0010 -999.25 -999.25 -999.25 -999.25 -999.25 -999.25
434.50 0 0 13.1170 -0.1260 0.0020 4.5150 -0.0020 -0.0020 -999.25 -999.25 -999.25 -999.25 -999.25 -999.25
435.00 0 0 13.1170 -0.1170 0.0030 5.0810 0.0020 0.0020 -999.25 -999.25 -999.25 -999.25 -999.25 -999.25
435.50 0 0 13.1170 -0.1070 0.0030 5.7960 0.0090 0.0090 -999.25 -999.25 -999.25 -999.25 -999.25 -999.25
436.00 0 0 13.1170 -0.1010 0.0010 5.6120 0.0160 0.0160 -999.25 -999.25 -999.25 -999.25 -999.25 -999.25
436.50 0 0 13.1170 -0.0960 -0.0020 5.3580 0.0190 0.0190 -999.25 -999.25 -999.25 -999.25 -999.25 -999.25
437.00 0 0 13.1170 -0.0940 -0.0050 5.0710 0.0150 0.0150 -999.25 -999.25 -999.25 -999.25 -999.25 -999.25
437.50 0 0 13.1170 -0.0940 -0.0070 4.7900 0.0080 0.0080 -999.25 -999.25 -999.25 -999.25 -999.25 -999.25
438.00 0 0 13.1170 -0.1040 -0.0110 4.5790 0.0000 0.0000 -999.25 -999.25 -999.25 -999.25 -999.25 -999.25
438.50 0 0 13.1170 -0.1140 -0.0120 4.4600 -0.0010 -0.0010 -999.25 -999.25 -999.25 -999.25 -999.25 -999.25
439.00 0 0 13.1170 -0.1160 -0.0100 4.3400 -0.0010 -0.0010 -999.25 -999.25 -999.25 -999.25 -999.25 -999.25
439.50 0 0 13.1170 -0.1140 -0.0030 4.2630 -0.0010 -0.0010 -999.25 -999.25 -999.25 -999.25 -999.25 -999.25
440.00 0 0 13.1170 -0.1130 0.0050 4.6050 0.0030 0.0030 -999.25 -999.25 -999.25 -999.25 -999.25 -999.25
440.50 0 0 13.1170 -0.1140 0.0050 4.8910 0.0060 0.0060 -999.25 -999.25 -999.25 -999.25 -999.25 -999.25
441.00 0 0 13.1190 -0.1150 0.0040 5.2200 0.0100 0.0100 -999.25 -999.25 -999.25 -999.25 -999.25 -999.25
441.50 0 0 13.1200 -0.1150 0.0010 5.5070 0.0110 0.0110 -999.25 -999.25 -999.25 -999.25 -999.25 -999.25
442.00 0 0 13.1210 -0.1090 0.0050 5.8090 0.0250 0.0250 -999.25 -999.25 -999.25 -999.25 -999.25 -999.25
442.50 0 0 13.1230 -0.1020 0.0110 5.4710 0.0440 0.0440 -999.25 -999.25 -999.25 -999.25 -999.25 -999.25
443.00 0 0 13.1240 -0.1060 0.0160 5.0820 0.0570 0.0570 -999.25 -999.25 -999.25 -999.25 -999.25 -999.25
443.50 0 0 13.1250 -0.1190 0.0210 4.6760 0.0450 0.0450 -999.25 -999.25 -999.25 -999.25 -999.25 -999.25
444.00 0 0 13.1270 -0.1350 0.0280 4.2670 0.0280 0.0280 3790.4961 3790.4961 3.57869605413498 1016.8750 1016.8750 1909.4540
444.50 0 0 13.1280 -0.1000 0.0240 3.8890 0.0310 0.0310 3861.3950 3861.3950 3.58674422989287 1016.8750 1016.8750 1909.4540
445.00 0 0 13.1290 -0.0860 0.0150 3.4730 0.0400 0.0400 4020.0139 4020.0139 3.60422755474687 1017.9120 1017.9120 1246.8051
445.50 0 0 13.1310 -0.0670 0.0070 3.8220 0.0450 0.0450 4153.5869 4153.5869 3.61842330106481 1018.7860 1018.7860 1270.1260
446.00 0 0 13.1320 -0.0980 0.0020 4.2510 0.0390 0.0390 4287.1611 4287.1611 3.6321698034375 1019.6590 1019.6590 1909.4540
446.50 0 0 13.1330 -0.1120 0.0060 4.7190 0.0220 0.0220 4420.7339 4420.7339 3.64549437393331 1020.5330 1020.5330 1874.3940
447.00 0 0 13.1350 -0.1500 0.0110 5.1180 0.0090 0.0090 4554.3081 4554.3081 3.65842240739545 1021.4060 1021.4060 1904.1610
447.50 0 0 13.1360 -0.1300 0.0160 5.4160 0.0090 0.0090 4694.9531 4694.9531 3.67163125826072 1035.6260 1035.6260 1970.8710
448.00 0 0 13.1370 -0.1000 0.0160 5.3140 0.0130 0.0130 4687.8809 4687.8809 3.67097656949258 1022.2800 1022.2800 1925.5100
448.50 0 0 13.1390 -0.0840 0.0080 5.1910 0.0210 0.0210 4913.2861 4913.2861 3.6913720537814 1023.5900 1023.5900 1874.3940
449.00 0 0 13.1400 -0.0590 0.0000 5.0170 0.0250 0.0250 5013.5762 5013.5762 3.70014762005293 1024.4640 1024.4640 1909.4540
449.50 0 0 13.1420 -0.0700 -0.0050 4.2650 0.0220 0.0220 5137.0098 5137.0098 3.7107103942394 1025.3370 1025.3370 1899.7150
450.00 0 0 13.1430 -0.0830 0.0000 3.4880 0.0190 0.0190 5260.4438 5260.4438 3.72102238517285 1026.2111 1026.2111 1874.3940
450.50 0 0 13.1440 -0.0750 0.0080 3.9820 0.0350 0.0350 5383.8779 5383.8779 3.73109520204104 1027.0840 1027.0840 1909.4540
451.00 0 0 13.1460 -0.0650 0.0140 4.7030 0.0530 0.0530 5507.3120 5507.3120 3.74093968081034 1027.9580 1027.9580 1903.3770
451.50 0 0 13.1470 -0.0560 0.0110 5.3900 0.0700 0.0700 5630.7461 5630.7461 3.75056594469938 1028.8311 1028.8311 1839.9780
452.00 0 0 13.1480 -0.0460 0.0070 6.1860 0.0780 0.0780 5754.1792 5754.1792 3.75998338281661 1029.7050 1029.7050 1845.8669
452.50 0 0 13.1500 -0.0570 0.0080 6.4430 0.0560 0.0560 5877.6128 5877.6128 3.76920097262428 1030.5780 1030.5780 1855.4659
453.00 0 0 13.1510 -0.0740 0.0130 6.7090 0.0370 0.0370 6001.0469 6001.0469 3.77822702092234 1031.4520 1031.4520 1865.0640
453.50 0 0 13.1520 -0.0910 0.0170 6.9660 0.0230 0.0230 6124.4810 6124.4810 3.7870692916674 1032.3260 1032.3260 1874.3940
454.00 0 0 13.1540 -0.0950 0.0200 6.8940 0.0180 0.0180 6247.9150 6247.9150 3.79573511253345 1033.1990 1033.1990 1874.3940
454.50 0 0 13.1550 -0.1000 0.0210 6.5100 0.0130 0.0130 6371.3491 6371.3491 3.80423140166813 1034.0730 1034.0730 1874.3940
455.00 0 0 13.1570 -0.1180 0.0210 6.1710 0.0080 0.0080 6494.7832 6494.7832 3.81256465862458 1034.9460 1034.9460 1909.4540
