~Version
 VERS.                                 2.0: CWLS LOG ASCII STANDARD - VERSION 2.0
 WRAP.                                  NO: ONE LINE PER DEPTH STEP
 DLM.                                SPACE: DELIMITING CHARACTER(SPACE TAB OR COMMA)
~Well Information
 STRT.ft                               2.0: First reference value
 STOP.ft                           10791.0: Last reference value
 STEP.ft                               0.5: Step increment
 NULL.                             -999.25: Missing value
 WELL.                              PETRO1: Well name
 UWI.                           4200000000: Unique Well ID
 API.                           4200000000: API Number
 LONG.                   -103.663049999873: Longitude
 LATI.                    31.5180500000053: Latitude
~Curve Information
 MD.ft                                    : Measured Depth
 BH_CALI.unitless                     : Bad Hole Caliper = 3in Delta 3ft Window
 BH_DRHO.unitless                     : Bad Hole Density Correction = -0.1>DRHO or DRHO>0.10
 CALI.in                              : Caliper
 DPHI_UNK.v/v                         : Density Porosity Unknown
 DRHO.g/cm3                           : Bulk Density Correction
 GR.gAPI                              : Gamma Ray
 NPHI.v/v                             : Neutron Porosity
 NPHI_UNK.v/v                         : Neutron Porosity Unknown
 RDEEP.ohm.m                          : Deep Resistivity
 RDEEP_LAT.ohm.m                      : Deep Laterolog Resistivity
 RDEEP_LOG_10.unitless                : Deep Resistivity = Log10(RDEEP)
 RSHAL.ohm.m                          : Shallow Resistivity
 RSHAL_LAT.ohm.m                      : Shallow Laterolog Resistivity
 RXO.ohm.m                            : Micro Resistivity
~Ascii Data Section
# ...
8706.00 0 0 8.6280 0.0800 0.0050 56.3050 0.1090 0.1090 127.3590 127.3590 2.10502964040469 74.6500 74.6500 414.0280
8706.50 0 0 8.6130 0.0480 0.0200 59.2030 0.0670 0.0670 120.5120 120.5120 2.08103029400055 65.4860 65.4860 235.1970
8707.00 0 0 8.6110 0.0520 0.0350 70.5570 0.0910 0.0910 93.7290 93.7290 1.9718739835386 55.7860 55.7860 39.9050
8707.50 0 0 8.6110 0.0660 0.0380 79.4210 0.1190 0.1190 73.2880 73.2880 1.86503287013333 49.7770 49.7770 38.4620
8708.00 0 0 8.6110 0.0790 0.0260 78.2150 0.1350 0.1350 74.6500 74.6500 1.87302981206104 53.8530 53.8530 213.2190
8708.50 0 0 8.6110 0.0720 0.0240 73.9330 0.1290 0.1290 82.7940 82.7940 1.91799886502995 64.3760 64.3760 479.7670
8709.00 0 0 8.6110 0.0600 0.0320 77.7370 0.1320 0.1320 94.1130 94.1130 1.97364961745821 74.8990 74.8990 246.7970
8709.50 0 0 8.6110 0.0640 0.0410 85.4600 0.1420 0.1420 98.4080 98.4080 1.99303040549058 81.8520 81.8520 22.5440
8710.00 0 0 8.6110 0.0800 0.0330 93.2690 0.1530 0.1530 94.8480 94.8480 1.9770281776272 80.3580 80.3580 72.8170
8710.50 0 0 8.6110 0.1090 0.0240 99.9920 0.1580 0.1580 94.8480 94.8480 1.9770281776272 83.3000 83.3000 144.8870
8711.00 0 0 8.6110 0.1320 0.0130 103.7540 0.1590 0.1590 108.9430 108.9430 2.03719933041487 89.1140 89.1140 120.7030
8711.50 0 0 8.6110 0.1470 0.0050 108.9580 0.1640 0.1640 125.0350 125.0350 2.09703159844182 94.9290 94.9290 67.9580
8712.00 0 0 8.6110 0.1570 0.0010 114.9880 0.1750 0.1750 121.8420 121.8420 2.08579701920056 100.2370 100.2370 40.6470
8712.50 0 0 8.6110 0.1560 -0.0040 111.6480 0.1910 0.1910 115.2220 115.2220 2.06153540935106 96.6120 96.6120 71.9500
8713.00 0 0 8.6170 0.1420 -0.0110 107.0320 0.1910 0.1910 111.9520 111.9520 2.04903185656807 98.4080 98.4080 53.6840
8713.50 0 0 8.6280 0.1270 -0.0180 87.2290 0.1700 0.1700 120.0300 120.0300 2.07928980609866 120.3710 120.3710 39.9050
8714.00 0 0 8.6390 0.1120 -0.0220 61.9900 0.1360 0.1360 145.2630 145.2630 2.16215500905291 140.1450 140.1450 295.7370
8714.50 0 0 8.6460 0.0690 -0.0070 47.1920 0.0890 0.0890 161.8190 161.8190 2.20902951301609 158.8660 158.8660 818.5210
8715.00 0 0 8.6790 0.0680 0.0080 49.5630 0.0360 0.0360 147.9710 147.9710 2.17017660881346 147.2970 147.2970 803.5820
8715.50 0 0 8.7300 0.0690 0.0100 62.8040 0.0370 0.0370 128.2830 128.2830 2.10816910769709 131.6310 131.6310 28.6440
8716.00 0 0 8.7770 0.0780 0.0080 72.3250 0.0720 0.0720 108.5960 108.5960 2.03581382884472 115.9650 115.9650 100.2370
8716.50 0 0 8.8230 0.0800 0.0040 70.4260 0.0980 0.0980 96.6120 96.6120 1.98503107268994 100.2370 100.2370 70.6370
8717.00 0 0 8.8710 0.0770 0.0080 65.3610 0.0960 0.0960 94.8480 94.8480 1.9770281776272 102.1010 102.1010 90.4410
8717.50 0 0 8.9170 0.0780 0.0140 66.2930 0.0900 0.0900 96.2630 96.2630 1.98345939217558 99.2250 99.2250 122.7520
8718.00 0 0 8.9640 0.0840 0.0100 64.9430 0.0850 0.0850 100.2370 100.2370 2.00102806015147 92.2960 92.2960 100.9420
8718.50 0 0 8.9860 0.0970 0.0010 94.8890 0.0890 0.0890 94.8480 94.8480 1.9770281776272 85.3670 85.3670 69.6050
8719.00 0 0 9.0130 0.1130 0.0000 102.8280 0.1100 0.1100 89.3400 89.3400 1.95104594813582 77.4520 77.4520 33.8090
8719.50 0 0 9.0400 0.1240 0.0010 118.6900 0.1360 0.1360 86.5030 86.5030 1.93703116943999 76.0380 76.0380 33.1920
8720.00 0 0 9.0670 0.1340 -0.0030 116.4080 0.1790 0.1790 86.5030 86.5030 1.93703116943999 80.5290 80.5290 57.6810
8720.50 0 0 9.0950 0.1380 -0.0050 114.4140 0.1770 0.1770 89.4530 89.4530 1.95159491015323 85.1090 85.1090 48.6060
8721.00 0 0 9.0970 0.1430 -0.0070 112.8590 0.1700 0.1700 94.8480 94.8480 1.9770281776272 89.7490 89.7490 40.6470
8721.50 0 0 9.0980 0.1500 -0.0100 115.9030 0.1710 0.1710 93.1170 93.1170 1.96902897563449 89.7490 89.7490 44.1040
8722.00 0 0 9.0970 0.1600 -0.0090 117.9210 0.1900 0.1900 89.7490 89.7490 1.95302961828767 77.4800 77.4800 49.7770
8722.50 0 0 9.0970 0.1610 -0.0060 114.6760 0.2100 0.2100 74.8600 74.8600 1.8742498227784 66.4740 66.4740 41.7080
8723.00 0 0 9.0970 0.1480 -0.0030 109.9290 0.2010 0.2010 58.8300 58.8300 1.76959884838745 55.4670 55.4670 33.0220
8723.50 0 0 9.0970 0.1360 -0.0010 101.3530 0.1870 0.1870 45.3970 45.3970 1.65702715403564 44.4600 44.4600 28.1290
8724.00 0 0 9.0970 0.1170 0.0010 96.0230 0.1760 0.1760 43.7550 43.7550 1.64102768817741 33.1920 33.1920 26.2490
8724.50 0 0 9.0970 0.0830 -0.0020 84.7200 0.1680 0.1680 43.7550 43.7550 1.64102768817741 31.9910 31.9910 24.2680
8725.00 0 0 9.0910 0.0690 -0.0060 73.9920 0.1580 0.1580 125.6740 125.6740 2.09924543819126 57.2130 57.2130 37.3640
8725.50 0 0 9.0840 0.0560 -0.0090 56.3590 0.1190 0.1190 330.8700 330.8700 2.51965739144181 113.2170 113.2170 70.4980
8726.00 0 0 9.0770 0.0420 -0.0120 44.1800 0.0480 0.0480 536.0660 536.0660 2.72921826295998 167.8920 167.8920 803.5820
8726.50 0 0 9.0700 0.0330 -0.0050 33.1130 0.0080 0.0080 774.5150 774.5150 2.88902983313996 433.5870 433.5870 1118.9440
8727.00 0 0 9.0630 0.0320 -0.0020 29.9850 0.0040 0.0040 2056.0330 2056.0330 3.31303008094721 680.8160 680.8160 1572.7610
8727.50 0 0 9.0580 0.0320 0.0020 30.3910 0.0010 0.0010 3380.8821 3380.8821 3.52903002607124 719.4990 719.4990 1909.9850
8728.00 0 0 9.0690 0.0240 0.0060 35.9890 0.0010 0.0010 3083.4009 3083.4009 3.4890299948331 551.5650 551.5650 1909.9850
8728.50 0 0 9.0790 0.0090 0.0370 60.9180 0.0070 0.0070 1754.9449 1754.9449 3.24426348547329 242.6780 242.6780 1268.5480
8729.00 0 0 9.0900 0.0270 0.0480 87.6120 0.0190 0.0190 1075.9449 1075.9449 3.03179003133161 210.2900 210.2900 319.5210
8729.50 0 0 9.1000 0.0600 0.0430 106.0530 0.0530 0.0530 396.9460 396.9460 2.59873142994414 144.2090 144.2090 31.9910
8730.00 0 0 9.1110 0.0900 0.0280 122.0590 0.0940 0.0940 64.4210 64.4210 1.80902746204082 78.1290 78.1290 46.9090
8730.50 0 0 9.1210 0.1480 -0.0010 121.1590 0.1350 0.1350 65.6190 65.6190 1.81702960767467 56.6280 56.6280 65.6190
8731.00 0 0 9.1320 0.1560 -0.0030 121.6940 0.1590 0.1590 66.2890 66.2890 1.82144146753529 54.5800 54.5800 64.4210
8731.50 0 0 9.1430 0.1620 0.0020 123.8660 0.1630 0.1630 67.5350 67.5350 1.82952890420003 56.0390 56.0390 59.2520
8732.00 0 0 9.1550 0.1620 0.0100 128.6320 0.1610 0.1610 68.0820 68.0820 1.83303230524642 60.1890 60.1890 52.3320
8732.50 0 0 9.1670 0.1510 0.0210 133.8780 0.1740 0.1740 65.9570 65.9570 1.81926089389371 64.4210 64.4210 45.4130
8733.00 0 0 9.1790 0.1450 0.0290 137.4190 0.1840 0.1840 63.6090 63.6090 1.80351856806678 63.2460 63.2460 36.3940
8733.50 0 0 9.1910 0.1460 0.0300 136.5650 0.1850 0.1850 61.2600 61.2600 1.78717699247055 57.8520 57.8520 48.8690
8734.00 0 0 9.2030 0.1480 0.0300 135.1070 0.1830 0.1830 58.9110 58.9110 1.77019639484253 53.3190 53.3190 41.5380
8734.50 0 0 9.2150 0.1430 0.0280 133.6160 0.1790 0.1790 56.6280 56.6280 1.75303122339057 49.7770 49.7770 34.4370
8735.00 0 0 9.2270 0.1390 0.0200 133.0390 0.1760 0.1760 56.6280 56.6280 1.75303122339057 47.9770 47.9770 32.5860
8735.50 0 0 9.2390 0.1390 0.0120 134.1250 0.1720 0.1720 56.6280 56.6280 1.75303122339057 47.9770 47.9770 36.0960
8736.00 0 0 9.2520 0.1390 0.0040 133.3710 0.1650 0.1650 60.3330 60.3330 1.78055492072587 50.4120 50.4120 39.1770
8736.50 0 0 9.2610 0.1300 0.0110 127.3150 0.1580 0.1580 63.8570 63.8570 1.80520851154057 52.7650 52.7650 36.9920
8737.00 0 0 9.2620 0.1230 0.0130 120.3940 0.1550 0.1550 67.3810 67.3810 1.82853745204818 55.1180 55.1180 34.4690
8737.50 0 0 9.2650 0.1340 0.0110 112.3240 0.1580 0.1580 70.9050 70.9050 1.8506768613586 57.4710 57.4710 33.1920
8738.00 0 0 9.2670 0.1480 0.0100 107.8950 0.1620 0.1620 74.6500 74.6500 1.87302981206104 59.8230 59.8230 35.0880
8738.50 0 0 9.2700 0.1540 0.0100 105.3600 0.1650 0.1650 76.0380 76.0380 1.88103068525302 60.9580 60.9580 37.7820
8739.00 0 0 9.2720 0.1440 0.0150 106.6970 0.1650 0.1650 70.8060 70.8060 1.85007006074745 54.2890 54.2890 40.6470
8739.50 0 0 9.2750 0.1330 0.0200 108.9530 0.1630 0.1630 63.3310 63.3310 1.8016163456154 48.3480 48.3480 36.5360
8740.00 0 0 9.2770 0.1220 0.0240 111.4960 0.1610 0.1610 55.8550 55.8550 1.74706205614839 42.1730 42.1730 28.6440
8740.50 0 0 9.2800 0.1170 0.0280 112.5830 0.1590 0.1590 51.6450 51.6450 1.71302828176035 41.4030 41.4030 28.6440
