~Version
 VERS.                                 2.0: CWLS LOG ASCII STANDARD - VERSION 2.0
 WRAP.                                  NO: ONE LINE PER DEPTH STEP
 DLM.                                SPACE: DELIMITING CHARACTER(SPACE TAB OR COMMA)
~Well Information
 STRT.ft                               2.0: First reference value
 STOP.ft                           10791.0: Last reference value
 STEP.ft                               0.5: Step increment
 NULL.                             -999.25: Missing value
 WELL.                              PETRO1: Well name
 UWI.                           4200000000: Unique Well ID
 API.                           4200000000: API Number
 LONG.                   -103.663049999873: Longitude
 LATI.                    31.5180500000053: Latitude
~Curve Information
 MD.ft                                    : Measured Depth
 BH_CALI.unitless                     : Bad Hole Caliper = 3in Delta 3ft Window
 BH_DRHO.unitless                     : Bad Hole Density Correction = -0.1>DRHO or DRHO>0.10
 CALI.in                              : Caliper
 DPHI_UNK.v/v                         : Density Porosity Unknown
 DRHO.g/cm3                           : Bulk Density Correction
 GR.gAPI                              : Gamma Ray
 NPHI.v/v                             : Neutron Porosity
 NPHI_UNK.v/v                         : Neutron Porosity Unknown
 RDEEP.ohm.m                          : Deep Resistivity
 RDEEP_LAT.ohm.m                      : Deep Laterolog Resistivity
 RDEEP_LOG_10.unitless                : Deep Resistivity = Log10(RDEEP)
 RSHAL.ohm.m                          : Shallow Resistivity
 RSHAL_LAT.ohm.m                      : Shallow Laterolog Resistivity
 RXO.ohm.m                            : Micro Resistivity
~Ascii Data Section
# ...
3843.00 0 0 13.2080 0.1500 0.0370 39.8720 0.1350 0.1350 2.6720 2.6720 0.426836453803508 1.6500 1.6500 1.7650
3843.50 0 0 13.1930 0.1450 0.0400 42.1530 0.1330 0.1330 2.8300 2.8300 0.45178643552429 1.7030 1.7030 1.7650
3844.00 0 0 13.1780 0.1390 0.0430 43.0110 0.1320 0.1320 3.1490 3.1490 0.498172660636544 1.7980 1.7980 1.7650
3844.50 0 0 13.1640 0.1350 0.0460 43.0070 0.1310 0.1310 3.4680 3.4680 0.540079088804173 2.1610 2.1610 2.7680
3845.00 0 0 13.1490 0.1390 0.0460 44.1540 0.1300 0.1300 3.7870 3.7870 0.578295305120826 2.5040 2.5040 3.6360
3845.50 0 0 13.1340 0.1450 0.0460 45.3290 0.1300 0.1300 4.1390 4.1390 0.61689542640076 2.8480 2.8480 2.9650
3846.00 0 0 13.1180 0.1470 0.0450 45.6340 0.1270 0.1270 4.3240 4.3240 0.635885685281273 3.1150 3.1150 4.0630
3846.50 0 0 13.1040 0.1440 0.0470 43.4710 0.1240 0.1240 4.5310 4.5310 0.656194062179186 3.3030 3.3030 2.9110
3847.00 0 0 13.0880 0.1420 0.0480 41.3400 0.1220 0.1220 4.7380 4.7380 0.675595056386746 3.4920 3.4920 2.8570
3847.50 0 0 13.0730 0.1320 0.0610 39.1870 0.1190 0.1190 4.9440 4.9440 0.694078462080759 3.6810 3.6810 3.2810
3848.00 0 0 13.0580 0.1180 0.0550 37.0110 0.1160 0.1160 5.1510 5.1510 0.711891549880579 3.8690 3.8690 3.7730
3848.50 0 0 13.0420 0.1180 0.0420 34.3980 0.1090 0.1090 5.3650 5.3650 0.72956972630197 4.0630 4.0630 3.3760
3849.00 0 0 13.0320 0.1220 0.0270 35.3150 0.1010 0.1010 5.8860 5.8860 0.769820257763592 4.3720 4.3720 3.3760
3849.50 0 0 13.0240 0.1220 0.0210 35.8000 0.0930 0.0930 6.6250 6.6250 0.821185882608846 4.6920 4.6920 4.3040
3850.00 0 0 13.0160 0.1220 0.0310 43.1970 0.0850 0.0850 7.2850 7.2850 0.862429556106009 5.0750 5.0750 4.6260
3850.50 0 0 13.0080 0.0960 0.0410 59.3150 0.0790 0.0790 11.4650 11.4650 1.05937405906596 7.9030 7.9030 10.2070
3851.00 0 0 13.0010 0.0740 0.0500 75.4360 0.0870 0.0870 16.5920 16.5920 1.21989873904497 11.4280 11.4280 15.7180
3851.50 0 0 12.9890 0.0580 0.0500 76.8490 0.1010 0.1010 23.6300 23.6300 1.37346372163237 14.8680 14.8680 38.2580
3852.00 0 0 12.9710 0.0590 0.0460 78.5920 0.1120 0.1120 23.1960 23.1960 1.36541310007618 16.8920 16.8920 32.4070
3852.50 0 0 12.9530 0.0730 0.0380 79.6420 0.1090 0.1090 21.4870 21.4870 1.33217578383042 18.8690 18.8690 24.5220
3853.00 0 0 12.9350 0.0880 0.0300 80.8610 0.1080 0.1080 20.3740 20.3740 1.30907630182233 21.1430 21.1430 24.0720
3853.50 0 0 12.9170 0.0910 0.0210 81.4090 0.1110 0.1110 23.1100 23.1100 1.36379994547911 22.6350 22.6350 24.0720
3854.00 0 0 12.8990 0.0890 0.0130 77.9440 0.1140 0.1140 29.1570 29.1570 1.46474283684515 25.9340 25.9340 28.1950
3854.50 0 0 12.8810 0.0720 0.0080 72.3250 0.1050 0.1050 35.2050 35.2050 1.54660434865427 29.2320 29.2320 34.4530
3855.00 0 0 12.8630 0.0560 0.0180 69.5450 0.0920 0.0920 41.9720 41.9720 1.6229596641905 32.5300 32.5300 38.2580
3855.50 0 0 12.8460 0.0400 0.0290 73.5070 0.0830 0.0830 43.5570 43.5570 1.63905795996544 34.8720 34.8720 35.9170
3856.00 0 0 12.8280 0.0300 0.0400 78.1120 0.0850 0.0850 42.5670 42.5670 1.62907304342693 33.5300 33.5300 32.9860
3856.50 0 0 12.8100 0.0220 0.0480 82.8810 0.0910 0.0910 39.1940 39.1940 1.59321958828748 31.7860 31.7860 33.6030
3857.00 0 0 12.7950 0.0210 0.0530 85.8290 0.1080 0.1080 36.1890 36.1890 1.55857658254224 31.7860 31.7860 36.7840
3857.50 0 0 12.7880 0.0210 0.0590 87.7660 0.1190 0.1190 35.5240 35.5240 1.55052186138925 32.3810 32.3810 39.6680
3858.00 0 0 12.7790 0.0220 0.0650 92.7090 0.1270 0.1270 38.0590 38.0590 1.58045737301597 43.2090 43.2090 42.7570
3858.50 0 0 12.7710 0.0290 0.0660 102.2430 0.1340 0.1340 49.3000 49.3000 1.69284691927723 52.8850 52.8850 53.3920
3859.00 0 0 12.7620 0.0390 0.0560 101.2170 0.1410 0.1410 67.3480 67.3480 1.82832470322366 63.0990 63.0990 65.4820
3859.50 0 0 12.7540 0.0480 0.0440 99.6800 0.1490 0.1490 85.3970 85.3970 1.9314426141746 76.0510 76.0510 138.5640
3860.00 0 0 12.7450 0.0580 0.0330 94.4750 0.1480 0.1480 103.4450 103.4450 2.01470950394436 89.7660 89.7660 188.3100
3860.50 0 0 12.7360 0.0690 0.0210 82.6360 0.1380 0.1380 118.4860 118.4860 2.07366703826226 103.4800 103.4800 148.7730
3861.00 0 0 12.7280 0.0780 0.0220 80.5130 0.1290 0.1290 125.2600 125.2600 2.09781240736529 114.1750 114.1750 122.9600
3861.50 0 0 12.7190 0.0750 0.0340 77.6510 0.1280 0.1280 120.7020 120.7020 2.08171446630089 106.4280 106.4280 195.4200
3862.00 0 0 12.7110 0.0690 0.0470 73.2450 0.1280 0.1280 105.4470 105.4470 2.02303422843796 93.0580 93.0580 132.9060
3862.50 0 0 12.7020 0.0620 0.0600 68.7370 0.1150 0.1150 88.8520 88.8520 1.9486672079341 79.6880 79.6880 37.5550
3863.00 0 0 12.6930 0.0550 0.0650 64.0540 0.0950 0.0950 72.2570 72.2570 1.85887992636441 66.3180 66.3180 36.1890
3863.50 0 0 12.6850 0.0570 0.0590 62.3430 0.0870 0.0870 55.6620 55.6620 1.74555880698112 52.9480 52.9480 35.5240
3864.00 0 0 12.6760 0.0650 0.0510 62.1030 0.0870 0.0870 45.2020 45.2020 1.65515765095624 45.2020 45.2020 33.2760
3864.50 0 0 12.6730 0.0690 0.0400 65.4450 0.0910 0.0910 44.3720 44.3720 1.64710900431692 44.3720 44.3720 30.0670
3865.00 0 0 12.6730 0.0700 0.0390 68.3220 0.0960 0.0960 46.6060 46.6060 1.66844183083491 46.0620 46.0620 30.6300
3865.50 0 0 12.6730 0.0750 0.0360 71.7060 0.1000 0.1000 51.7250 51.7250 1.71370049933777 50.5180 50.5180 46.9080
3866.00 0 0 12.6730 0.0790 0.0310 73.2820 0.1010 0.1010 56.8440 56.8440 1.75468463077558 56.1000 56.1000 47.7860
3866.50 0 0 12.6730 0.0860 0.0320 70.2050 0.1040 0.1040 67.4950 67.4950 1.82927160167786 68.4400 68.4400 60.9750
3867.00 0 0 12.6730 0.0810 0.0370 60.6500 0.0910 0.0910 81.0130 81.0130 1.90855471486943 80.7790 80.7790 79.6390
3867.50 0 0 12.6730 0.0670 0.0410 48.5890 0.0720 0.0720 94.5300 94.5300 1.97556965789366 93.1190 93.1190 118.7540
3868.00 0 0 12.6740 0.0510 0.0460 50.4450 0.0550 0.0550 108.0480 108.0480 2.03361673237611 105.4580 105.4580 239.6080
3868.50 0 0 12.6730 0.0490 0.0440 62.5070 0.0570 0.0570 122.9600 122.9600 2.08976385449169 116.3100 116.3100 171.6220
3869.00 0 0 12.6800 0.0610 0.0400 74.5150 0.0750 0.0750 127.6020 127.6020 2.10585748145534 111.9100 111.9100 83.3200
3869.50 0 0 12.6960 0.0700 0.0360 84.0460 0.0990 0.0990 111.1610 111.1610 2.04595244501905 103.1090 103.1090 165.4000
3870.00 0 0 12.7110 0.0730 0.0320 89.1320 0.1260 0.1260 96.2570 96.2570 1.98343232208528 94.3080 94.3080 63.0990
3870.50 0 0 12.7270 0.0690 0.0350 90.7950 0.1350 0.1350 80.2880 80.2880 1.90465063963452 84.8780 84.8780 64.2790
3871.00 0 0 12.7420 0.0620 0.0390 91.7980 0.1460 0.1460 77.3670 77.3670 1.88855575688467 79.4740 79.4740 122.4100
3871.50 0 0 12.7570 0.0540 0.0430 91.2770 0.1480 0.1480 72.8210 72.8210 1.86225663850207 71.8390 71.8390 277.8990
3872.00 0 0 12.7680 0.0480 0.0400 84.4690 0.1480 0.1480 69.2250 69.2250 1.84026296441761 60.8900 60.8900 216.0830
3872.50 0 0 12.7790 0.0480 0.0310 69.6590 0.1370 0.1370 39.6570 39.6570 1.59831985730435 45.6700 45.6700 56.4590
3873.00 0 0 12.7900 0.0830 0.0360 56.6930 0.1240 0.1240 24.7150 24.7150 1.3929606147968 32.9860 32.9860 52.4250
3873.50 0 0 12.8010 0.0860 0.0460 44.4830 0.1120 0.1120 18.1040 18.1040 1.25777454094667 22.7140 22.7140 19.1970
3874.00 0 0 12.8120 0.0910 0.0570 45.7250 0.1040 0.1040 11.4920 11.4920 1.06039561731991 13.9080 13.9080 6.4010
3874.50 0 0 12.8230 0.0960 0.0530 49.4210 0.1030 0.1030 9.7080 9.7080 0.987129767659897 8.3710 8.3710 4.9820
3875.00 0 0 12.8350 0.1010 0.0480 49.6050 0.1050 0.1050 8.6700 8.6700 0.93801909747621 7.7730 7.7730 13.0530
3875.50 0 0 12.8460 0.1040 0.0400 46.1300 0.1080 0.1080 7.6240 7.6240 0.88218288763027 7.1700 7.1700 17.8950
3876.00 0 0 12.8570 0.0980 0.0410 42.5430 0.1110 0.1110 6.9550 6.9550 0.842297134328065 6.4580 6.4580 10.4880
3876.50 0 0 12.8690 0.0900 0.0430 38.9080 0.1080 0.1080 6.5320 6.5320 0.815046176064631 6.2230 6.2230 3.2530
3877.00 0 0 12.8780 0.0810 0.0450 37.8180 0.1010 0.1010 6.1090 6.1090 0.78597012513201 6.1090 6.1090 6.3760
3877.50 0 0 12.8860 0.0790 0.0480 39.3850 0.1040 0.1040 6.1090 6.1090 0.78597012513201 6.1090 6.1090 9.1830
3878.00 0 0 12.8930 0.0860 0.0400 43.2830 0.1100 0.1100 6.4220 6.4220 0.807670301230484 6.3490 6.3490 4.5410
3878.50 0 0 12.9010 0.0950 0.0340 48.0740 0.1160 0.1160 6.7240 6.7240 0.827627704767434 6.7020 6.7020 4.6260
