~Version
 VERS.                                 2.0: CWLS LOG ASCII STANDARD - VERSION 2.0
 WRAP.                                  NO: ONE LINE PER DEPTH STEP
 DLM.                                SPACE: DELIMITING CHARACTER(SPACE TAB OR COMMA)
~Well Information
 STRT.ft                               2.0: First reference value
 STOP.ft                           10791.0: Last reference value
 STEP.ft                               0.5: Step increment
 NULL.                             -999.25: Missing value
 WELL.                              PETRO1: Well name
 UWI.                           4200000000: Unique Well ID
 API.                           4200000000: API Number
 LONG.                   -103.663049999873: Longitude
 LATI.                    31.5180500000053: Latitude
~Curve Information
 MD.ft                                    : Measured Depth
 BH_CALI.unitless                     : Bad Hole Caliper = 3in Delta 3ft Window
 BH_DRHO.unitless                     : Bad Hole Density Correction = -0.1>DRHO or DRHO>0.10
 CALI.in                              : Caliper
 DPHI_UNK.v/v                         : Density Porosity Unknown
 DRHO.g/cm3                           : Bulk Density Correction
 GR.gAPI                              : Gamma Ray
 NPHI.v/v                             : Neutron Porosity
 NPHI_UNK.v/v                         : Neutron Porosity Unknown
 RDEEP.ohm.m                          : Deep Resistivity
 RDEEP_LAT.ohm.m                      : Deep Laterolog Resistivity
 RDEEP_LOG_10.unitless                : Deep Resistivity = Log10(RDEEP)
 RSHAL.ohm.m                          : Shallow Resistivity
 RSHAL_LAT.ohm.m                      : Shallow Laterolog Resistivity
 RXO.ohm.m                            : Micro Resistivity
~Ascii Data Section
# ...
5921.50 0 0 9.3980 0.1200 0.0000 69.0580 0.0950 0.0950 18.6390 18.6390 1.27042260833278 7.4260 7.4260 7.0460
5922.00 0 0 9.3990 0.1230 -0.0020 69.7370 0.1040 0.1040 16.6140 16.6140 1.22047420612922 6.8300 6.8300 6.3740
5922.50 0 0 9.4000 0.1240 -0.0040 74.1080 0.1130 0.1130 15.3120 15.3120 1.18503192043277 6.5620 6.5620 6.0960
5923.00 0 0 9.4020 0.1210 -0.0050 77.5360 0.1150 0.1150 15.3120 15.3120 1.18503192043277 6.4420 6.4420 5.8750
5923.50 0 0 9.4030 0.1150 -0.0070 79.7910 0.1140 0.1140 16.3170 16.3170 1.21264031353483 6.9020 6.9020 3.6080
5924.00 0 0 9.4040 0.1090 -0.0080 76.2080 0.1060 0.1060 19.0120 19.0120 1.27902780562272 7.4990 7.4990 2.0190
5924.50 0 0 9.4060 0.1030 -0.0060 70.4250 0.0990 0.0990 21.7290 21.7290 1.33703973992038 8.0960 8.0960 2.8640
5925.00 0 0 9.4070 0.0970 -0.0040 69.5210 0.0940 0.0940 22.5440 22.5440 1.35303097576528 8.4150 8.4150 2.8120
5925.50 0 0 9.4080 0.0940 -0.0020 70.5500 0.0940 0.0940 21.5900 21.5900 1.33425264233423 8.0400 8.0400 2.2250
5926.00 0 0 9.4100 0.0940 0.0000 72.8670 0.0970 0.0970 20.2490 20.2490 1.30640358038004 7.6800 7.6800 1.7420
5926.50 0 0 9.4110 0.1020 0.0010 76.5950 0.1030 0.1030 18.9090 18.9090 1.27666856184528 7.3290 7.3290 1.8390
5927.00 0 0 9.4120 0.1100 -0.0010 76.3810 0.1080 0.1080 18.0730 18.0730 1.25703024859329 7.4330 7.4330 2.0710
5927.50 0 0 9.4140 0.1170 -0.0020 74.8260 0.1140 0.1140 18.0730 18.0730 1.25703024859329 7.8860 7.8860 2.3030
5928.00 0 0 9.4150 0.1250 -0.0010 73.4830 0.1140 0.1140 19.1000 19.1000 1.28103336724773 8.3390 8.3390 2.5340
5928.50 0 0 9.4170 0.1320 0.0010 75.9650 0.1140 0.1140 22.8470 22.8470 1.35882918169332 8.7910 8.7910 3.4730
5929.00 0 0 9.4180 0.1340 0.0010 82.2900 0.1140 0.1140 27.2600 27.2600 1.43552585149866 9.2440 9.2440 5.2680
5929.50 0 0 9.4180 0.1330 -0.0020 87.8350 0.1230 0.1230 31.6730 31.6730 1.50068920078083 9.4850 9.4850 6.9350
5930.00 0 0 9.4250 0.1310 0.0010 90.6300 0.1310 0.1310 36.0860 36.0860 1.55733874478592 12.0680 12.0680 11.9280
5930.50 0 0 9.3740 0.1150 0.0100 91.4190 0.1400 0.1400 40.4980 40.4980 1.60743357604402 14.4790 14.4790 16.1820
5931.00 0 0 9.2630 0.1140 0.0180 91.2840 0.1440 0.1440 44.9110 44.9110 1.6523527252842 16.7890 16.7890 12.9730
5931.50 0 0 9.1570 0.1220 0.0170 92.3210 0.1370 0.1370 48.8690 48.8690 1.68903345220752 17.4190 17.4190 12.7360
5932.00 0 0 9.0510 0.1380 0.0090 96.6910 0.1280 0.1280 59.7780 59.7780 1.77654138070169 19.1000 19.1000 10.7010
5932.50 0 0 8.9450 0.1650 0.0000 100.6520 0.1270 0.1270 69.6670 69.6670 1.84302710935045 23.5190 23.5190 4.8760
5933.00 0 0 8.8310 0.1670 -0.0050 126.4390 0.1340 0.1340 79.5560 79.5560 1.90067293908791 28.3620 28.3620 1.6520
5933.50 0 0 8.7620 0.1630 -0.0050 144.7750 0.1430 0.1430 88.1110 88.1110 1.94503013021781 33.2040 33.2040 0.5850
5934.00 0 0 8.7550 0.1560 -0.0060 153.1960 0.1510 0.1510 88.1110 88.1110 1.94503013021781 37.0710 37.0710 0.5260
5934.50 0 0 8.7380 0.1460 -0.0060 146.2130 0.1420 0.1420 88.1110 88.1110 1.94503013021781 38.4620 38.4620 1.0150
5935.00 0 0 8.7320 0.1280 -0.0020 129.6120 0.1330 0.1330 84.6770 84.6770 1.92776546311066 37.7600 37.7600 1.9070
5935.50 0 0 8.7330 0.1070 0.0020 112.9580 0.1250 0.1250 83.3740 83.3740 1.92103063796405 38.4620 38.4620 2.3390
5936.00 0 0 8.7330 0.1040 0.0000 104.9230 0.1170 0.1170 84.9240 84.9240 1.92903044165288 42.0980 42.0980 2.3820
5936.50 0 0 8.7330 0.1010 0.0190 104.9460 0.1060 0.1060 91.2050 91.2050 1.96001864768024 45.8930 45.8930 36.3940
5937.00 0 0 8.7330 0.1050 0.0390 111.4070 0.1080 0.1080 97.6390 97.6390 1.98962332280675 49.6880 49.6880 34.7590
5937.50 0 0 8.7330 0.1140 0.0340 123.7710 0.1160 0.1160 104.0720 104.0720 2.01733390068085 53.4830 53.4830 29.7190
5938.00 0 0 8.7330 0.1230 0.0130 135.0160 0.1230 0.1230 109.9080 109.9080 2.04102930506595 58.7530 58.7530 24.9020
5938.50 0 0 8.7330 0.1310 0.0000 131.5960 0.1310 0.1310 105.9330 105.9330 2.02503127158416 58.2020 58.2020 18.8940
5939.00 0 0 8.7330 0.1330 -0.0010 122.0260 0.1330 0.1330 101.4230 101.4230 2.00613645243722 55.6300 55.6300 12.8850
5939.50 0 0 8.7330 0.1320 0.0010 112.4040 0.1320 0.1320 95.9060 95.9060 1.98184577802968 53.0580 53.0580 5.7680
5940.00 0 0 8.7330 0.1320 -0.0010 106.7640 0.1320 0.1320 90.3900 90.3900 1.95612038639302 50.4860 50.4860 6.7210
5940.50 0 0 8.7330 0.1300 -0.0050 105.1590 0.1320 0.1320 84.8730 84.8730 1.92876955342467 47.9140 47.9140 8.9040
5941.00 0 0 8.7320 0.1240 -0.0020 103.8780 0.1320 0.1320 78.7160 78.7160 1.89606301705356 45.3420 45.3420 11.8310
5941.50 0 0 8.7360 0.1150 0.0030 103.8150 0.1250 0.1250 71.7840 71.7840 1.85602765474292 42.7700 42.7700 11.2790
5942.00 0 0 8.7430 0.1090 0.0090 106.4720 0.1190 0.1190 64.8520 64.8520 1.81192337402951 41.4030 41.4030 7.7450
5942.50 0 0 8.7490 0.1110 0.0050 112.6610 0.1190 0.1190 59.8450 59.8450 1.77702787131521 36.9960 36.9960 10.4990
5943.00 0 0 8.7550 0.1140 0.0040 115.4520 0.1280 0.1280 52.2800 52.2800 1.71833557890851 32.8830 32.8830 14.4890
5943.50 0 0 8.7620 0.1170 0.0030 110.0620 0.1320 0.1320 43.6930 43.6930 1.64041186477631 28.7700 28.7700 13.6720
5944.00 0 0 8.7680 0.1200 0.0040 96.0070 0.1310 0.1310 35.1060 35.1060 1.54538134849436 24.6570 24.6570 10.8920
5944.50 0 0 8.7720 0.1220 0.0040 76.2050 0.1080 0.1080 28.6440 28.6440 1.45703366505438 20.1850 20.1850 8.1120
5945.00 0 0 8.7640 0.1210 0.0050 66.7420 0.0970 0.0970 30.2700 30.2700 1.48101242095657 20.1850 20.1850 5.6630
5945.50 0 0 8.7560 0.1080 0.0060 60.1770 0.0860 0.0860 33.4240 33.4240 1.52405842263623 21.4550 21.4550 6.2120
5946.00 0 0 8.7480 0.0840 0.0150 58.8220 0.0770 0.0770 36.5770 36.5770 1.56320808230839 24.2030 24.2030 26.6090
5946.50 0 0 8.7400 0.0610 0.0250 61.7090 0.0770 0.0770 39.9050 39.9050 1.60102731514449 27.1040 27.1040 23.6640
5947.00 0 0 8.7320 0.0710 0.0250 70.4700 0.0760 0.0760 36.7100 36.7100 1.56478438450399 22.5250 22.5250 15.0330
5947.50 0 0 8.7240 0.0840 0.0150 78.2360 0.0770 0.0770 33.1920 33.1920 1.52103342182092 20.5600 20.5600 9.3120
5948.00 0 0 8.7160 0.1000 0.0040 97.9520 0.0830 0.0830 31.9910 31.9910 1.50502781581696 20.9430 20.9430 13.2290
5948.50 0 0 8.7080 0.1150 0.0060 108.1210 0.0980 0.0980 36.3250 36.3250 1.56020562297006 23.8090 23.8090 15.0320
5949.00 0 0 8.7000 0.1170 0.0080 112.1940 0.1170 0.1170 40.0400 40.0400 1.60249406880728 26.2670 26.2670 13.8890
5949.50 0 0 8.6920 0.1190 0.0100 116.9310 0.1280 0.1280 43.7540 43.7540 1.64101776246733 28.7240 28.7240 11.9490
5950.00 0 0 8.6840 0.1220 0.0150 117.8730 0.1300 0.1300 47.4690 47.4690 1.67641008280207 31.1210 31.1210 9.3180
5950.50 0 0 8.6760 0.1240 0.0200 121.1540 0.1270 0.1270 51.1840 51.1840 1.70913422274003 31.4070 31.4070 5.6630
5951.00 0 0 8.6680 0.1220 0.0210 128.6410 0.1290 0.1290 54.8990 54.8990 1.73956443373174 32.9850 32.9850 8.9630
5951.50 0 0 8.6600 0.1240 0.0070 139.9250 0.1400 0.1400 58.6130 58.6130 1.76799395052515 34.8480 34.8480 24.8440
5952.00 0 0 8.6520 0.1300 -0.0060 148.9680 0.1530 0.1530 62.3280 62.3280 1.79468319134091 36.7100 36.7100 34.3260
5952.50 0 0 8.6440 0.1360 -0.0090 144.3790 0.1590 0.1590 64.4210 64.4210 1.80902746204082 39.1770 39.1770 27.1040
5953.00 0 0 8.6360 0.1390 -0.0020 130.1960 0.1470 0.1470 63.2460 63.2460 1.80103306371567 38.9840 38.9840 31.7190
5953.50 0 0 8.6280 0.1310 0.0040 116.9490 0.1340 0.1340 61.9420 61.9420 1.7919852238645 38.6840 38.6840 37.7600
5954.00 0 0 8.6200 0.1270 0.0090 104.1100 0.1210 0.1210 59.8450 59.8450 1.77702787131521 38.4620 38.4620 25.6470
5954.50 0 0 8.6120 0.1380 0.0050 99.0200 0.1060 0.1060 61.9230 61.9230 1.79185198856445 39.9920 39.9920 35.5020
5955.00 0 0 8.6110 0.1430 0.0020 99.9900 0.1020 0.1020 66.3600 66.3600 1.82190637735232 43.2590 43.2590 52.6050
5955.50 0 0 8.6110 0.1380 0.0070 101.8770 0.1010 0.1010 70.7960 70.7960 1.85000872058522 46.2410 46.2410 50.7030
5956.00 0 0 8.6110 0.1300 0.0120 121.2540 0.1010 0.1010 75.2330 75.2330 1.87640838014257 46.2410 46.2410 39.6770
5956.50 0 0 8.6110 0.1210 0.0120 137.6850 0.1070 0.1070 78.8910 78.8910 1.89702746108926 44.5690 44.5690 29.5380
5957.00 0 0 8.6110 0.1200 0.0090 139.7680 0.1230 0.1230 76.0380 76.0380 1.88103068525302 43.0700 43.0700 19.3980
