~Version
 VERS.                                 2.0: CWLS LOG ASCII STANDARD - VERSION 2.0
 WRAP.                                  NO: ONE LINE PER DEPTH STEP
 DLM.                                SPACE: DELIMITING CHARACTER(SPACE TAB OR COMMA)
~Well Information
 STRT.ft                               2.0: First reference value
 STOP.ft                           10791.0: Last reference value
 STEP.ft                               0.5: Step increment
 NULL.                             -999.25: Missing value
 WELL.                              PETRO1: Well name
 UWI.                           4200000000: Unique Well ID
 API.                           4200000000: API Number
 LONG.                   -103.663049999873: Longitude
 LATI.                    31.5180500000053: Latitude
~Curve Information
 MD.ft                                    : Measured Depth
 BH_CALI.unitless                     : Bad Hole Caliper = 3in Delta 3ft Window
 BH_DRHO.unitless                     : Bad Hole Density Correction = -0.1>DRHO or DRHO>0.10
 CALI.in                              : Caliper
 DPHI_UNK.v/v                         : Density Porosity Unknown
 DRHO.g/cm3                           : Bulk Density Correction
 GR.gAPI                              : Gamma Ray
 NPHI.v/v                             : Neutron Porosity
 NPHI_UNK.v/v                         : Neutron Porosity Unknown
 RDEEP.ohm.m                          : Deep Resistivity
 RDEEP_LAT.ohm.m                      : Deep Laterolog Resistivity
 RDEEP_LOG_10.unitless                : Deep Resistivity = Log10(RDEEP)
 RSHAL.ohm.m                          : Shallow Resistivity
 RSHAL_LAT.ohm.m                      : Shallow Laterolog Resistivity
 RXO.ohm.m                            : Micro Resistivity
~Ascii Data Section
# ...
7310.50 0 0 8.6150 0.0380 0.0140 41.5860 0.0440 0.0440 457.9240 457.9240 2.66079340569066 343.4960 343.4960 299.5310
7311.00 0 0 8.6170 0.0460 0.0040 40.4950 0.0410 0.0410 411.4750 411.4750 2.61434345390583 297.1870 297.1870 265.1400
7311.50 0 0 8.6190 0.0490 0.0000 39.2570 0.0380 0.0380 365.0260 365.0260 2.56232379939998 281.2100 281.2100 233.9000
7312.00 0 0 8.6210 0.0480 -0.0060 38.6070 0.0380 0.0380 344.3740 344.3740 2.53703035508483 285.2630 285.2630 221.3250
7312.50 0 0 8.6230 0.0430 -0.0050 40.5360 0.0390 0.0390 354.1380 354.1380 2.54917253027368 299.0100 299.0100 221.3250
7313.00 0 0 8.6260 0.0480 -0.0030 46.0490 0.0420 0.0420 373.7440 373.7440 2.57257422932497 314.0730 314.0730 254.3810
7313.50 0 0 8.6280 0.0600 -0.0030 50.6060 0.0530 0.0530 393.3500 393.3500 2.59477915450515 319.9120 319.9120 284.2320
7314.00 0 0 8.6300 0.0730 -0.0060 56.8920 0.0650 0.0650 406.4710 406.4710 2.6090295659467 319.9120 319.9120 278.9610
7314.50 0 0 8.6320 0.0830 -0.0080 63.7330 0.0760 0.0760 400.8080 400.8080 2.60293638132521 319.9120 319.9120 268.4170
7315.00 0 0 8.6350 0.0830 -0.0060 66.1000 0.0810 0.0810 399.0520 399.0520 2.60102949178096 325.8590 325.8590 261.2340
7315.50 0 0 8.6370 0.0770 -0.0030 62.6280 0.0740 0.0740 422.6190 422.6190 2.62594901805862 354.9550 354.9550 299.6340
7316.00 0 0 8.6390 0.0710 -0.0040 57.1420 0.0640 0.0640 479.7670 479.7670 2.681030372413 386.5700 386.5700 341.3590
7316.50 0 0 8.6410 0.0660 -0.0070 51.7900 0.0540 0.0540 452.6710 452.6710 2.65578267266314 414.0280 414.0280 377.5980
7317.00 0 0 8.6440 0.0650 -0.0110 50.9100 0.0440 0.0440 401.5360 401.5360 2.60372448834561 369.5160 369.5160 326.8100
7317.50 0 0 8.6460 0.0650 -0.0130 52.9120 0.0430 0.0430 350.4000 350.4000 2.54456409749604 330.1760 330.1760 266.9290
7318.00 0 0 8.6480 0.0630 -0.0110 54.4840 0.0480 0.0480 299.2650 299.2650 2.47605592767984 290.8360 290.8360 207.0490
7318.50 0 0 8.6500 0.0570 -0.0080 53.6520 0.0540 0.0540 248.1300 248.1300 2.3946792755451 251.4950 251.4950 147.1680
7319.00 0 0 8.6570 0.0520 -0.0050 53.2130 0.0590 0.0590 194.5490 194.5490 2.28902900283137 212.1550 212.1550 122.7520
7319.50 0 0 8.6730 0.0480 0.0010 53.4600 0.0650 0.0650 184.0900 184.0900 2.26503019772306 172.8150 172.8150 134.5950
7320.00 0 0 8.6880 0.0380 0.0080 53.8760 0.0710 0.0710 158.8660 158.8660 2.20103096081745 147.5810 147.5810 123.8400
7320.50 0 0 8.7040 0.0300 0.0150 55.3770 0.0750 0.0750 175.9300 175.9300 2.24533990269532 147.5810 147.5810 111.9520
7321.00 0 0 8.7200 0.0310 0.0180 57.4990 0.0770 0.0770 201.8510 201.8510 2.30503090531139 240.0200 240.0200 150.0610
7321.50 0 0 8.7360 0.0350 0.0100 56.4380 0.0770 0.0770 314.3950 314.3950 2.49747563059359 349.9030 349.9030 210.2760
7322.00 0 0 8.7510 0.0390 0.0010 52.1350 0.0690 0.0690 430.6450 430.6450 2.63411940920918 462.4130 462.4130 270.4920
7322.50 0 0 8.7680 0.0420 -0.0080 45.0440 0.0470 0.0470 555.9430 555.9430 2.74503026630425 471.0100 471.0100 319.9120
7323.00 0 0 8.7700 0.0450 -0.0060 41.1780 0.0270 0.0270 534.4360 534.4360 2.7278957048469 462.4130 462.4130 290.8700
7323.50 0 0 8.7610 0.0450 0.0000 42.9920 0.0260 0.0260 478.2060 478.2060 2.67961502086078 428.4040 428.4040 230.2050
7324.00 0 0 8.7540 0.0460 0.0040 46.6760 0.0290 0.0290 421.9760 421.9760 2.62528775104706 393.8440 393.8440 169.5400
7324.50 0 0 8.7470 0.0470 0.0110 56.8530 0.0400 0.0400 365.7450 365.7450 2.56317839771669 359.2850 359.2850 142.2430
7325.00 0 0 8.7400 0.0550 0.0220 69.9250 0.0470 0.0470 331.9170 331.9170 2.5210294965096 324.7250 324.7250 204.1670
7325.50 0 0 8.7330 0.0710 0.0290 82.4980 0.0770 0.0770 319.9120 319.9120 2.50503053091261 291.7630 291.7630 266.0910
7326.00 0 0 8.7260 0.0920 0.0230 95.4490 0.0980 0.0980 325.8590 325.8590 2.51302972041021 281.2100 281.2100 218.2130
7326.50 0 0 8.7180 0.1130 0.0070 100.8620 0.1280 0.1280 337.2040 337.2040 2.52789271769536 299.2920 299.2920 147.5810
7327.00 0 0 8.7110 0.1190 0.0010 112.2240 0.1440 0.1440 362.2420 362.2420 2.55899880299285 328.9570 328.9570 162.9680
7327.50 0 0 8.7040 0.1250 0.0020 121.1480 0.1530 0.1530 391.7690 391.7690 2.5930300680508 363.9400 363.9400 190.9990
7328.00 0 0 8.6970 0.1310 0.0010 126.4630 0.1710 0.1710 374.0820 374.0820 2.57296681140925 350.1900 350.1900 194.5490
7328.50 0 0 8.6910 0.1360 0.0000 121.7900 0.1830 0.1830 332.2010 332.2010 2.52140093544177 317.6290 317.6290 162.6410
7329.00 0 0 8.6870 0.1300 -0.0020 111.4480 0.1820 0.1820 302.7120 302.7120 2.48102963744314 285.0690 285.0690 142.2430
7329.50 0 0 8.6840 0.1240 -0.0030 95.0740 0.1580 0.1580 302.7120 302.7120 2.48102963744314 247.1890 247.1890 118.1820
7330.00 0 0 8.6800 0.0950 -0.0030 84.8510 0.1400 0.1400 308.3400 308.3400 2.48902986806882 242.6780 242.6780 86.5030
7330.50 0 0 8.6760 0.0740 0.0010 75.0470 0.1090 0.1090 302.7120 302.7120 2.48102963744314 258.5400 258.5400 156.6890
7331.00 0 0 8.6720 0.0600 0.0120 64.8890 0.0800 0.0800 278.5210 278.5210 2.44485794579445 237.8410 237.8410 229.6310
7331.50 0 0 8.6690 0.0530 0.0220 66.1670 0.0720 0.0720 238.6390 238.6390 2.37774142047724 210.9390 210.9390 195.0730
7332.00 0 0 8.6650 0.0540 0.0330 78.3080 0.0740 0.0740 204.5710 204.5710 2.31084406812182 169.5630 169.5630 153.1210
7332.50 0 0 8.6610 0.0750 0.0340 91.6890 0.0940 0.0940 170.5030 170.5030 2.23173202480643 128.1870 128.1870 111.1680
7333.00 0 0 8.6570 0.0940 0.0290 104.7060 0.1190 0.1190 125.0350 125.0350 2.09703159844182 103.9990 103.9990 69.2160
7333.50 0 0 8.6540 0.1110 0.0220 103.5660 0.1380 0.1380 132.1390 132.1390 2.12103101583596 112.4780 112.4780 35.7300
7334.00 0 0 8.6470 0.1070 0.0160 94.2580 0.1360 0.1360 148.1780 148.1780 2.1707837286916 137.0000 137.0000 50.5220
7334.50 0 0 8.6350 0.0960 0.0100 76.9080 0.1120 0.1120 166.6450 166.6450 2.2217922876636 161.5220 161.5220 81.9860
7335.00 0 0 8.6240 0.0850 0.0030 66.4850 0.0890 0.0890 185.1130 185.1130 2.26743691918518 184.0900 184.0900 103.9990
7335.50 0 0 8.6130 0.0740 0.0060 62.3560 0.0620 0.0620 194.5490 194.5490 2.28902900283137 184.0900 184.0900 89.6310
7336.00 0 0 8.6020 0.0640 0.0140 65.2780 0.0610 0.0610 176.6370 176.6370 2.24708168006116 169.4220 169.4220 68.5400
7336.50 0 0 8.5910 0.0770 0.0220 75.7790 0.0780 0.0780 147.0890 147.0890 2.16758019537927 139.2440 139.2440 52.6050
7337.00 0 0 8.5800 0.0890 0.0260 85.6250 0.1000 0.1000 129.7270 129.7270 2.11303037493272 111.9520 111.9520 51.6450
7337.50 0 0 8.5690 0.1000 0.0240 99.7570 0.1230 0.1230 129.7270 129.7270 2.11303037493272 122.4760 122.4760 47.1010
7338.00 0 0 8.5570 0.1020 0.0220 98.7380 0.1370 0.1370 163.9690 163.9690 2.21476174803837 157.6990 157.6990 46.2410
7338.50 0 0 8.5460 0.1020 0.0140 90.1510 0.1250 0.1250 202.0000 202.0000 2.30535136944662 192.9220 192.9220 105.7060
7339.00 0 0 8.5350 0.0990 0.0060 81.1000 0.1060 0.1060 240.0300 240.0300 2.3802655251292 228.1450 228.1450 186.3050
7339.50 0 0 8.5240 0.0950 0.0000 78.1170 0.0900 0.0900 271.0380 271.0380 2.43303018398647 238.2480 238.2480 229.6310
7340.00 0 0 8.5130 0.0940 0.0070 87.0570 0.0930 0.0930 261.2340 261.2340 2.41702970036503 233.9000 233.9000 133.2950
7340.50 0 0 8.5020 0.1090 0.0110 106.2130 0.1260 0.1260 247.1890 247.1890 2.39302914058509 222.2280 222.2280 60.9580
7341.00 0 0 8.4910 0.1250 0.0100 117.2930 0.1600 0.1600 251.7850 251.7850 2.40102985360635 217.2850 217.2850 81.4800
7341.50 0 0 8.4980 0.1380 0.0050 125.0710 0.1910 0.1910 270.8290 270.8290 2.43269516616395 234.3580 234.3580 114.0330
7342.00 0 0 8.5060 0.1360 0.0050 123.7840 0.1860 0.1860 314.2630 314.2630 2.49729325202701 257.7760 257.7760 68.2260
7342.50 0 0 8.5150 0.1320 0.0090 119.1590 0.1660 0.1660 357.6980 357.6980 2.55351651188117 281.1930 281.1930 85.9030
7343.00 0 0 8.5230 0.1280 0.0060 120.7650 0.1690 0.1690 377.5980 377.5980 2.57702968533137 304.6110 304.6110 102.1010
7343.50 0 0 8.5300 0.1260 0.0000 127.8400 0.1810 0.1810 400.4280 400.4280 2.60252443798892 341.2850 341.2850 89.7490
7344.00 0 0 8.5300 0.1240 -0.0050 130.3020 0.1710 0.1710 466.2940 466.2940 2.66865982724163 402.9500 402.9500 1531.1930
7344.50 0 0 8.5300 0.0880 -0.0110 117.1890 0.1390 0.1390 532.1600 532.1600 2.72604222753942 464.6140 464.6140 1319.7800
